[
    {
        "ward_number_369": 1,
        "slug": "ramaswamy-palya",
        "ward_name": "Ramaswamy Palya",
        "ward_name_kn": "ರಾಮಸ್ವಾಮಿ ಪಾಳ್ಯ",
        "zone_name": "Gandhinagara",
        "corporation": "Central",
        "corporation_id": 1,
        "ward_id_within_corp": 1,
        "assembly_constituency": "Shivajinagar",
        "parliamentary_constituency": "Bangalore Central",
        "center_lat": 13.0063508257632,
        "center_lng": 77.5989432735884
    },
    {
        "ward_number_369": 2,
        "slug": "jayamahal",
        "ward_name": "Jayamahal",
        "ward_name_kn": "ಜಯಮಹಲ್",
        "zone_name": "Gandhinagara",
        "corporation": "Central",
        "corporation_id": 1,
        "ward_id_within_corp": 2,
        "assembly_constituency": "Shivajinagar",
        "parliamentary_constituency": "Bangalore Central",
        "center_lat": 12.9942327006523,
        "center_lng": 77.6001584998818
    },
    {
        "ward_number_369": 3,
        "slug": "vasanth-nagar",
        "ward_name": "Vasanth Nagar",
        "ward_name_kn": "ವಸಂತ ನಗರ",
        "zone_name": "Gandhinagara",
        "corporation": "Central",
        "corporation_id": 1,
        "ward_id_within_corp": 3,
        "assembly_constituency": "Shivajinagar",
        "parliamentary_constituency": "Bangalore Central",
        "center_lat": 12.9903702307508,
        "center_lng": 77.5927784186678
    },
    {
        "ward_number_369": 4,
        "slug": "sampangirama-nagar",
        "ward_name": "Sampangirama Nagar",
        "ward_name_kn": "ಸಂಪಂಗಿರಾಮ ನಗರ",
        "zone_name": "Gandhinagara",
        "corporation": "Central",
        "corporation_id": 1,
        "ward_id_within_corp": 4,
        "assembly_constituency": "Shivajinagar",
        "parliamentary_constituency": "Bangalore Central",
        "center_lat": 12.9809239000379,
        "center_lng": 77.5868267972456
    },
    {
        "ward_number_369": 5,
        "slug": "shivajinagar",
        "ward_name": "Shivajinagar",
        "ward_name_kn": "ಶಿವಾಜಿನಗರ",
        "zone_name": "Gandhinagara",
        "corporation": "Central",
        "corporation_id": 1,
        "ward_id_within_corp": 5,
        "assembly_constituency": "Shivajinagar",
        "parliamentary_constituency": "Bangalore Central",
        "center_lat": 12.9835047028403,
        "center_lng": 77.6057989343145
    },
    {
        "ward_number_369": 6,
        "slug": "bharathi-nagar",
        "ward_name": "Bharathi Nagar",
        "ward_name_kn": "ಭಾರತಿ ನಗರ",
        "zone_name": "Gandhinagara",
        "corporation": "Central",
        "corporation_id": 1,
        "ward_id_within_corp": 6,
        "assembly_constituency": "Shivajinagar",
        "parliamentary_constituency": "Bangalore Central",
        "center_lat": 12.9895699068578,
        "center_lng": 77.6096483010009
    },
    {
        "ward_number_369": 7,
        "slug": "k-kamaraj-ward",
        "ward_name": "K Kamaraj Ward",
        "ward_name_kn": "ಕೆ ಕಾಮರಾಜ್ ವಾರ್ಡ್",
        "zone_name": "Gandhinagara",
        "corporation": "Central",
        "corporation_id": 1,
        "ward_id_within_corp": 7,
        "assembly_constituency": "Shivajinagar",
        "parliamentary_constituency": "Bangalore Central",
        "center_lat": 12.9815668371935,
        "center_lng": 77.6155920320122
    },
    {
        "ward_number_369": 8,
        "slug": "halasuru",
        "ward_name": "Halasuru",
        "ward_name_kn": "ಹಲಸೂರು",
        "zone_name": "Gandhinagara",
        "corporation": "Central",
        "corporation_id": 1,
        "ward_id_within_corp": 8,
        "assembly_constituency": "Shivajinagar",
        "parliamentary_constituency": "Bangalore Central",
        "center_lat": 12.9771492874551,
        "center_lng": 77.6234780881762
    },
    {
        "ward_number_369": 9,
        "slug": "hoysala-nagara-central",
        "ward_name": "Hoysala Nagara Central",
        "ward_name_kn": "ಹೊಯ್ಸಳ ನಗರ ಕೇಂದ್ರ",
        "zone_name": "C.V. Raman Nagar",
        "corporation": "Central",
        "corporation_id": 1,
        "ward_id_within_corp": 9,
        "assembly_constituency": "C V Raman Nagar",
        "parliamentary_constituency": "Bangalore Central",
        "center_lat": 12.9824731734778,
        "center_lng": 77.6320502021353
    },
    {
        "ward_number_369": 10,
        "slug": "cox-town",
        "ward_name": "Cox Town",
        "ward_name_kn": "ಕಾಕ್ಸ್ ಟೌನ್",
        "zone_name": "C.V. Raman Nagar",
        "corporation": "Central",
        "corporation_id": 1,
        "ward_id_within_corp": 10,
        "assembly_constituency": "C V Raman Nagar",
        "parliamentary_constituency": "Bangalore Central",
        "center_lat": 12.9928301544135,
        "center_lng": 77.6234116376262
    },
    {
        "ward_number_369": 11,
        "slug": "old-baiyappanahalli",
        "ward_name": "Old Baiyappanahalli",
        "ward_name_kn": "ಹಳೆ ಬೈಯಪ್ಪನಹಳ್ಳಿ",
        "zone_name": "C.V. Raman Nagar",
        "corporation": "Central",
        "corporation_id": 1,
        "ward_id_within_corp": 11,
        "assembly_constituency": "C V Raman Nagar",
        "parliamentary_constituency": "Bangalore Central",
        "center_lat": 12.9914640188487,
        "center_lng": 77.6437660225628
    },
    {
        "ward_number_369": 12,
        "slug": "kasturi-nagar",
        "ward_name": "Kasturi Nagar",
        "ward_name_kn": "ಕಸ್ತೂರಿ ನಗರ",
        "zone_name": "C.V. Raman Nagar",
        "corporation": "Central",
        "corporation_id": 1,
        "ward_id_within_corp": 12,
        "assembly_constituency": "C V Raman Nagar",
        "parliamentary_constituency": "Bangalore Central",
        "center_lat": 13.0005648203049,
        "center_lng": 77.6515861452874
    },
    {
        "ward_number_369": 13,
        "slug": "krishnaiahnapalya",
        "ward_name": "Krishnaiahnapalya",
        "ward_name_kn": "ಕೃಷ್ಣಯ್ಯನ ಪಾಳ್ಯ",
        "zone_name": "C.V. Raman Nagar",
        "corporation": "Central",
        "corporation_id": 1,
        "ward_id_within_corp": 13,
        "assembly_constituency": "C V Raman Nagar",
        "parliamentary_constituency": "Bangalore Central",
        "center_lat": 12.9932526049058,
        "center_lng": 77.6539734554717
    },
    {
        "ward_number_369": 14,
        "slug": "nagavarapalya",
        "ward_name": "Nagavarapalya",
        "ward_name_kn": "ನಾಗವಾರಪಾಳ್ಯ",
        "zone_name": "C.V. Raman Nagar",
        "corporation": "Central",
        "corporation_id": 1,
        "ward_id_within_corp": 14,
        "assembly_constituency": "C V Raman Nagar",
        "parliamentary_constituency": "Bangalore Central",
        "center_lat": 12.9865314048043,
        "center_lng": 77.6585241944594
    },
    {
        "ward_number_369": 15,
        "slug": "indiranagar",
        "ward_name": "Indiranagar",
        "ward_name_kn": "ಇಂದಿರಾನಗರ",
        "zone_name": "C.V. Raman Nagar",
        "corporation": "Central",
        "corporation_id": 1,
        "ward_id_within_corp": 15,
        "assembly_constituency": "C V Raman Nagar",
        "parliamentary_constituency": "Bangalore Central",
        "center_lat": 12.9809176855512,
        "center_lng": 77.6422714595615
    },
    {
        "ward_number_369": 16,
        "slug": "new-thippasandra",
        "ward_name": "New Thippasandra",
        "ward_name_kn": "ನ್ಯೂ ತಿಪ್ಪಸಂದ್ರ",
        "zone_name": "C.V. Raman Nagar",
        "corporation": "Central",
        "corporation_id": 1,
        "ward_id_within_corp": 16,
        "assembly_constituency": "C V Raman Nagar",
        "parliamentary_constituency": "Bangalore Central",
        "center_lat": 12.9763232102826,
        "center_lng": 77.6578159303993
    },
    {
        "ward_number_369": 17,
        "slug": "kaggadasapura",
        "ward_name": "Kaggadasapura",
        "ward_name_kn": "ಕಗ್ಗದಾಸಪುರ",
        "zone_name": "C.V. Raman Nagar",
        "corporation": "Central",
        "corporation_id": 1,
        "ward_id_within_corp": 17,
        "assembly_constituency": "C V Raman Nagar",
        "parliamentary_constituency": "Bangalore Central",
        "center_lat": 12.9818994877617,
        "center_lng": 77.6723271830744
    },
    {
        "ward_number_369": 18,
        "slug": "g-m-palya",
        "ward_name": "G.M Palya",
        "ward_name_kn": "ಜಿ.ಎಂ. ಪಾಳ್ಯ",
        "zone_name": "C.V. Raman Nagar",
        "corporation": "Central",
        "corporation_id": 1,
        "ward_id_within_corp": 18,
        "assembly_constituency": "C V Raman Nagar",
        "parliamentary_constituency": "Bangalore Central",
        "center_lat": 12.9757141870344,
        "center_lng": 77.6708103844425
    },
    {
        "ward_number_369": 19,
        "slug": "jeevan-bhimanagar",
        "ward_name": "Jeevan Bhimanagar",
        "ward_name_kn": "ಜೀವನ್ ಭೀಮನಗರ",
        "zone_name": "C.V. Raman Nagar",
        "corporation": "Central",
        "corporation_id": 1,
        "ward_id_within_corp": 19,
        "assembly_constituency": "C V Raman Nagar",
        "parliamentary_constituency": "Bangalore Central",
        "center_lat": 12.9629069565869,
        "center_lng": 77.6547650701677
    },
    {
        "ward_number_369": 20,
        "slug": "kodihalli",
        "ward_name": "Kodihalli",
        "ward_name_kn": "ಕೋಡಿಹಳ್ಳಿ",
        "zone_name": "C.V. Raman Nagar",
        "corporation": "Central",
        "corporation_id": 1,
        "ward_id_within_corp": 20,
        "assembly_constituency": "C V Raman Nagar",
        "parliamentary_constituency": "Bangalore Central",
        "center_lat": 12.9641015651114,
        "center_lng": 77.6461678157141
    },
    {
        "ward_number_369": 21,
        "slug": "konena-agrahara",
        "ward_name": "Konena Agrahara",
        "ward_name_kn": "ಕೋನೇನ ಅಗ್ರಹಾರ",
        "zone_name": "C.V. Raman Nagar",
        "corporation": "Central",
        "corporation_id": 1,
        "ward_id_within_corp": 21,
        "assembly_constituency": "C V Raman Nagar",
        "parliamentary_constituency": "Bangalore Central",
        "center_lat": 12.955261792643,
        "center_lng": 77.6517445990725
    },
    {
        "ward_number_369": 22,
        "slug": "domluru",
        "ward_name": "Domluru",
        "ward_name_kn": "ದೊಮ್ಮಲೂರು",
        "zone_name": "C.V. Raman Nagar",
        "corporation": "Central",
        "corporation_id": 1,
        "ward_id_within_corp": 22,
        "assembly_constituency": "Shantinagar",
        "parliamentary_constituency": "Bangalore Central",
        "center_lat": 12.9605845122641,
        "center_lng": 77.638782732469
    },
    {
        "ward_number_369": 23,
        "slug": "jogpalya",
        "ward_name": "Jogpalya",
        "ward_name_kn": "ಜೋಗಪಾಳ್ಯ",
        "zone_name": "C.V. Raman Nagar",
        "corporation": "Central",
        "corporation_id": 1,
        "ward_id_within_corp": 23,
        "assembly_constituency": "Shantinagar",
        "parliamentary_constituency": "Bangalore Central",
        "center_lat": 12.9717159126146,
        "center_lng": 77.6341273212899
    },
    {
        "ward_number_369": 24,
        "slug": "agaram",
        "ward_name": "Agaram",
        "ward_name_kn": "ಅಗರಂ",
        "zone_name": "C.V. Raman Nagar",
        "corporation": "Central",
        "corporation_id": 1,
        "ward_id_within_corp": 24,
        "assembly_constituency": "Shantinagar",
        "parliamentary_constituency": "Bangalore Central",
        "center_lat": 12.9468711212402,
        "center_lng": 77.6411417201078
    },
    {
        "ward_number_369": 25,
        "slug": "ashokanagar",
        "ward_name": "Ashokanagar",
        "ward_name_kn": "ಅಶೋಕನಗರ",
        "zone_name": "C.V. Raman Nagar",
        "corporation": "Central",
        "corporation_id": 1,
        "ward_id_within_corp": 25,
        "assembly_constituency": "Shantinagar",
        "parliamentary_constituency": "Bangalore Central",
        "center_lat": 12.9681488481151,
        "center_lng": 77.6062909415499
    },
    {
        "ward_number_369": 26,
        "slug": "vannarpet",
        "ward_name": "Vannarpet",
        "ward_name_kn": "ವನ್ನಾರ್‌ಪೇಟೆ",
        "zone_name": "C.V. Raman Nagar",
        "corporation": "Central",
        "corporation_id": 1,
        "ward_id_within_corp": 26,
        "assembly_constituency": "Shantinagar",
        "parliamentary_constituency": "Bangalore Central",
        "center_lat": 12.956084317235,
        "center_lng": 77.6200191543267
    },
    {
        "ward_number_369": 27,
        "slug": "ambedkarnagar",
        "ward_name": "Ambedkarnagar",
        "ward_name_kn": "ಅಂಬೇಡ್ಕರ್‌ನಗರ",
        "zone_name": "C.V. Raman Nagar",
        "corporation": "Central",
        "corporation_id": 1,
        "ward_id_within_corp": 27,
        "assembly_constituency": "Shantinagar",
        "parliamentary_constituency": "Bangalore Central",
        "center_lat": 12.9504363210865,
        "center_lng": 77.6164572362114
    },
    {
        "ward_number_369": 28,
        "slug": "neelasandra",
        "ward_name": "Neelasandra",
        "ward_name_kn": "ನೀಲಸಂದ್ರ",
        "zone_name": "C.V. Raman Nagar",
        "corporation": "Central",
        "corporation_id": 1,
        "ward_id_within_corp": 28,
        "assembly_constituency": "Shantinagar",
        "parliamentary_constituency": "Bangalore Central",
        "center_lat": 12.9521525466919,
        "center_lng": 77.6146882592915
    },
    {
        "ward_number_369": 29,
        "slug": "austin-town",
        "ward_name": "Austin Town",
        "ward_name_kn": "ಆಸ್ಟಿನ್ ಟೌನ್",
        "zone_name": "C.V. Raman Nagar",
        "corporation": "Central",
        "corporation_id": 1,
        "ward_id_within_corp": 29,
        "assembly_constituency": "Shantinagar",
        "parliamentary_constituency": "Bangalore Central",
        "center_lat": 12.9577076368374,
        "center_lng": 77.6145358044456
    },
    {
        "ward_number_369": 30,
        "slug": "vinayakanagar",
        "ward_name": "Vinayakanagar",
        "ward_name_kn": "ವಿನಾಯಕನಗರ",
        "zone_name": "C.V. Raman Nagar",
        "corporation": "Central",
        "corporation_id": 1,
        "ward_id_within_corp": 30,
        "assembly_constituency": "Shantinagar",
        "parliamentary_constituency": "Bangalore Central",
        "center_lat": 12.9562154851263,
        "center_lng": 77.606621157819
    },
    {
        "ward_number_369": 31,
        "slug": "shanthinagar",
        "ward_name": "Shanthinagar",
        "ward_name_kn": "ಶಾಂತಿನಗರ",
        "zone_name": "C.V. Raman Nagar",
        "corporation": "Central",
        "corporation_id": 1,
        "ward_id_within_corp": 31,
        "assembly_constituency": "Shantinagar",
        "parliamentary_constituency": "Bangalore Central",
        "center_lat": 12.9576364986047,
        "center_lng": 77.5994129255715
    },
    {
        "ward_number_369": 32,
        "slug": "silverjubilee-park-ward",
        "ward_name": "SilverJubilee Park Ward",
        "ward_name_kn": "ಸಿಲ್ವರ್ ಜುಬಿಲಿ ಪಾರ್ಕ್ ವಾರ್ಡ್",
        "zone_name": "Gandhinagara",
        "corporation": "Central",
        "corporation_id": 1,
        "ward_id_within_corp": 32,
        "assembly_constituency": "Chickpet",
        "parliamentary_constituency": "Bangalore South",
        "center_lat": 12.9594489613755,
        "center_lng": 77.5873596917019
    },
    {
        "ward_number_369": 33,
        "slug": "dharmaraya-swamy-temple-ward",
        "ward_name": "Dharmaraya Swamy Temple Ward",
        "ward_name_kn": "ಧರ್ಮರಾಯ ಸ್ವಾಮಿ ದೇವಸ್ಥಾನ ವಾರ್ಡ್",
        "zone_name": "Gandhinagara",
        "corporation": "Central",
        "corporation_id": 1,
        "ward_id_within_corp": 33,
        "assembly_constituency": "Chickpet",
        "parliamentary_constituency": "Bangalore South",
        "center_lat": 12.9643148199806,
        "center_lng": 77.5838189875586
    },
    {
        "ward_number_369": 34,
        "slug": "d-v-gundappa-ward",
        "ward_name": "D.V Gundappa Ward",
        "ward_name_kn": "ಡಿ.ವಿ. ಗುಂಡಪ್ಪ ವಾರ್ಡ್",
        "zone_name": "Gandhinagara",
        "corporation": "Central",
        "corporation_id": 1,
        "ward_id_within_corp": 34,
        "assembly_constituency": "Chickpet",
        "parliamentary_constituency": "Bangalore South",
        "center_lat": 12.9582813797578,
        "center_lng": 77.5801598224923
    },
    {
        "ward_number_369": 35,
        "slug": "hombegowda-nagara",
        "ward_name": "Hombegowda Nagara",
        "ward_name_kn": "ಹೊಂಬೇಗೌಡ ನಗರ",
        "zone_name": "Gandhinagara",
        "corporation": "Central",
        "corporation_id": 1,
        "ward_id_within_corp": 35,
        "assembly_constituency": "Chickpet",
        "parliamentary_constituency": "Bangalore South",
        "center_lat": 12.9524527814255,
        "center_lng": 77.593664143369
    },
    {
        "ward_number_369": 36,
        "slug": "someshwara-nagara",
        "ward_name": "Someshwara Nagara",
        "ward_name_kn": "ಸೋಮೇಶ್ವರ ನಗರ",
        "zone_name": "Gandhinagara",
        "corporation": "Central",
        "corporation_id": 1,
        "ward_id_within_corp": 36,
        "assembly_constituency": "Chickpet",
        "parliamentary_constituency": "Bangalore South",
        "center_lat": 12.9433705446728,
        "center_lng": 77.5976233860194
    },
    {
        "ward_number_369": 37,
        "slug": "bhel-ward",
        "ward_name": "BHEL Ward",
        "ward_name_kn": "ಬಿಎಚ್‌ಇಎಲ್ ವಾರ್ಡ್",
        "zone_name": "Gandhinagara",
        "corporation": "Central",
        "corporation_id": 1,
        "ward_id_within_corp": 37,
        "assembly_constituency": "Chickpet",
        "parliamentary_constituency": "Bangalore South",
        "center_lat": 12.9337821309655,
        "center_lng": 77.596577725743
    },
    {
        "ward_number_369": 38,
        "slug": "kanakanapalya",
        "ward_name": "Kanakanapalya",
        "ward_name_kn": "ಕನಕನಪಾಳ್ಯ",
        "zone_name": "Gandhinagara",
        "corporation": "Central",
        "corporation_id": 1,
        "ward_id_within_corp": 38,
        "assembly_constituency": "Chickpet",
        "parliamentary_constituency": "Bangalore South",
        "center_lat": 12.9410336414927,
        "center_lng": 77.5886879816826
    },
    {
        "ward_number_369": 39,
        "slug": "venkat-reddy-nagara",
        "ward_name": "Venkat Reddy Nagara",
        "ward_name_kn": "ವೆಂಕಟ ರೆಡ್ಡಿ ನಗರ",
        "zone_name": "Gandhinagara",
        "corporation": "Central",
        "corporation_id": 1,
        "ward_id_within_corp": 39,
        "assembly_constituency": "Chickpet",
        "parliamentary_constituency": "Bangalore South",
        "center_lat": 12.945742810688,
        "center_lng": 77.5918690228156
    },
    {
        "ward_number_369": 40,
        "slug": "ashoka-pillar",
        "ward_name": "Ashoka Pillar",
        "ward_name_kn": "ಅಶೋಕ ಪಿಲ್ಲರ್‌",
        "zone_name": "Gandhinagara",
        "corporation": "Central",
        "corporation_id": 1,
        "ward_id_within_corp": 40,
        "assembly_constituency": "Chickpet",
        "parliamentary_constituency": "Bangalore South",
        "center_lat": 12.9456275015322,
        "center_lng": 77.5848292786618
    },
    {
        "ward_number_369": 41,
        "slug": "v-v-puram",
        "ward_name": "V.V Puram",
        "ward_name_kn": "ವಿ.ವಿ. ಪುರಂ",
        "zone_name": "Gandhinagara",
        "corporation": "Central",
        "corporation_id": 1,
        "ward_id_within_corp": 41,
        "assembly_constituency": "Chickpet",
        "parliamentary_constituency": "Bangalore South",
        "center_lat": 12.9504537157046,
        "center_lng": 77.5779544743638
    },
    {
        "ward_number_369": 42,
        "slug": "sunkenahalli",
        "ward_name": "Sunkenahalli",
        "ward_name_kn": "ಸುಂಕೇನಹಳ್ಳಿ",
        "zone_name": "Gandhinagara",
        "corporation": "Central",
        "corporation_id": 1,
        "ward_id_within_corp": 42,
        "assembly_constituency": "Chickpet",
        "parliamentary_constituency": "Bangalore South",
        "center_lat": 12.9455928418343,
        "center_lng": 77.5711682277376
    },
    {
        "ward_number_369": 43,
        "slug": "devaraj-urs-ward",
        "ward_name": "Devaraj Urs Ward",
        "ward_name_kn": "ದೇವರಾಜ ಅರಸು ವಾರ್ಡ್‌",
        "zone_name": "Gandhinagara",
        "corporation": "Central",
        "corporation_id": 1,
        "ward_id_within_corp": 43,
        "assembly_constituency": "Chickpet",
        "parliamentary_constituency": "Bangalore South",
        "center_lat": 12.9519796959223,
        "center_lng": 77.564998032553
    },
    {
        "ward_number_369": 44,
        "slug": "chamarajpet",
        "ward_name": "Chamarajpet",
        "ward_name_kn": "ಚಾಮರಾಜಪೇಟೆ",
        "zone_name": "Gandhinagara",
        "corporation": "Central",
        "corporation_id": 1,
        "ward_id_within_corp": 44,
        "assembly_constituency": "Chamarajpet",
        "parliamentary_constituency": "Bangalore Central",
        "center_lat": 12.9572043421389,
        "center_lng": 77.5649314081321
    },
    {
        "ward_number_369": 45,
        "slug": "k-r-market",
        "ward_name": "K.R Market",
        "ward_name_kn": "ಕೆ.ಆರ್. ಮಾರುಕಟ್ಟೆ",
        "zone_name": "Gandhinagara",
        "corporation": "Central",
        "corporation_id": 1,
        "ward_id_within_corp": 45,
        "assembly_constituency": "Chamarajpet",
        "parliamentary_constituency": "Bangalore Central",
        "center_lat": 12.9636448964546,
        "center_lng": 77.5712807659401
    },
    {
        "ward_number_369": 46,
        "slug": "cheluvadi-palya",
        "ward_name": "Cheluvadi Palya",
        "ward_name_kn": "ಚೆಲುವಾದಿ ಪಾಳ್ಯ",
        "zone_name": "Gandhinagara",
        "corporation": "Central",
        "corporation_id": 1,
        "ward_id_within_corp": 46,
        "assembly_constituency": "Chamarajpet",
        "parliamentary_constituency": "Bangalore Central",
        "center_lat": 12.9654618418006,
        "center_lng": 77.5676575922146
    },
    {
        "ward_number_369": 47,
        "slug": "ipd-salappa-ward",
        "ward_name": "IPD Salappa Ward",
        "ward_name_kn": "ಐಪಿಡಿ ಸಾಲಪ್ಪ ವಾರ್ಡ್",
        "zone_name": "Gandhinagara",
        "corporation": "Central",
        "corporation_id": 1,
        "ward_id_within_corp": 47,
        "assembly_constituency": "Chamarajpet",
        "parliamentary_constituency": "Bangalore Central",
        "center_lat": 12.9637921830136,
        "center_lng": 77.5611510410197
    },
    {
        "ward_number_369": 48,
        "slug": "azad-nagar",
        "ward_name": "Azad Nagar",
        "ward_name_kn": "ಆಜಾದ್ ನಗರ",
        "zone_name": "Gandhinagara",
        "corporation": "Central",
        "corporation_id": 1,
        "ward_id_within_corp": 48,
        "assembly_constituency": "Chamarajpet",
        "parliamentary_constituency": "Bangalore Central",
        "center_lat": 12.9563714718347,
        "center_lng": 77.5565381527081
    },
    {
        "ward_number_369": 49,
        "slug": "kasturbha-nagar",
        "ward_name": "Kasturbha Nagar",
        "ward_name_kn": "ಕಸ್ತೂರ ಬಾ ವಾರ್ಡ್‌",
        "zone_name": "Gandhinagara",
        "corporation": "Central",
        "corporation_id": 1,
        "ward_id_within_corp": 49,
        "assembly_constituency": "Chamarajpet",
        "parliamentary_constituency": "Bangalore Central",
        "center_lat": 12.9546325480251,
        "center_lng": 77.5523722595937
    },
    {
        "ward_number_369": 50,
        "slug": "jjr-nagara",
        "ward_name": "JJR Nagara",
        "ward_name_kn": "ಜೆಜೆಆರ್ ನಗರ",
        "zone_name": "Gandhinagara",
        "corporation": "Central",
        "corporation_id": 1,
        "ward_id_within_corp": 50,
        "assembly_constituency": "Chamarajpet",
        "parliamentary_constituency": "Bangalore Central",
        "center_lat": 12.9609075665238,
        "center_lng": 77.551815791277
    },
    {
        "ward_number_369": 51,
        "slug": "old-guddadahalli",
        "ward_name": "Old Guddadahalli",
        "ward_name_kn": "ಹಳೆ ಗುಡ್ಡದಹಳ್ಳಿ",
        "zone_name": "Gandhinagara",
        "corporation": "Central",
        "corporation_id": 1,
        "ward_id_within_corp": 51,
        "assembly_constituency": "Chamarajpet",
        "parliamentary_constituency": "Bangalore Central",
        "center_lat": 12.9623471617725,
        "center_lng": 77.5472286134013
    },
    {
        "ward_number_369": 52,
        "slug": "padarayanapura",
        "ward_name": "Padarayanapura",
        "ward_name_kn": "ಪಾದರಾಯನಪುರ",
        "zone_name": "Gandhinagara",
        "corporation": "Central",
        "corporation_id": 1,
        "ward_id_within_corp": 52,
        "assembly_constituency": "Chamarajpet",
        "parliamentary_constituency": "Bangalore Central",
        "center_lat": 12.9646635120461,
        "center_lng": 77.551210844624
    },
    {
        "ward_number_369": 53,
        "slug": "rayapuram",
        "ward_name": "Rayapuram",
        "ward_name_kn": "ರಾಯಪುರಂ",
        "zone_name": "Gandhinagara",
        "corporation": "Central",
        "corporation_id": 1,
        "ward_id_within_corp": 53,
        "assembly_constituency": "Chamarajpet",
        "parliamentary_constituency": "Bangalore Central",
        "center_lat": 12.9663799307249,
        "center_lng": 77.554689301509
    },
    {
        "ward_number_369": 54,
        "slug": "binnypete",
        "ward_name": "Binnypete",
        "ward_name_kn": "ಬಿನ್ನಿಪೇಟೆ",
        "zone_name": "Gandhinagara",
        "corporation": "Central",
        "corporation_id": 1,
        "ward_id_within_corp": 54,
        "assembly_constituency": "Gandhi Nagar",
        "parliamentary_constituency": "Bangalore Central",
        "center_lat": 12.9685014478221,
        "center_lng": 77.5610175893733
    },
    {
        "ward_number_369": 55,
        "slug": "bhuvaneshwari-nagar",
        "ward_name": "Bhuvaneshwari Nagar",
        "ward_name_kn": "ಭುವನೇಶ್ವರಿ ನಗರ",
        "zone_name": "Gandhinagara",
        "corporation": "Central",
        "corporation_id": 1,
        "ward_id_within_corp": 55,
        "assembly_constituency": "Gandhi Nagar",
        "parliamentary_constituency": "Bangalore Central",
        "center_lat": 12.9715747510557,
        "center_lng": 77.5595957341842
    },
    {
        "ward_number_369": 56,
        "slug": "gopalpura",
        "ward_name": "Gopalpura",
        "ward_name_kn": "ಗೋಪಾಲಪುರ",
        "zone_name": "Gandhinagara",
        "corporation": "Central",
        "corporation_id": 1,
        "ward_id_within_corp": 56,
        "assembly_constituency": "Gandhi Nagar",
        "parliamentary_constituency": "Bangalore Central",
        "center_lat": 12.9774021106838,
        "center_lng": 77.5646073163526
    },
    {
        "ward_number_369": 57,
        "slug": "cottonpete",
        "ward_name": "Cottonpete",
        "ward_name_kn": "ಕಾಟನ್‌ಪೇಟೆ",
        "zone_name": "Gandhinagara",
        "corporation": "Central",
        "corporation_id": 1,
        "ward_id_within_corp": 57,
        "assembly_constituency": "Gandhi Nagar",
        "parliamentary_constituency": "Bangalore Central",
        "center_lat": 12.9726712077209,
        "center_lng": 77.570819307432
    },
    {
        "ward_number_369": 58,
        "slug": "chickpete",
        "ward_name": "Chickpete",
        "ward_name_kn": "ಚಿಕ್ಕಪೇಟೆ",
        "zone_name": "Gandhinagara",
        "corporation": "Central",
        "corporation_id": 1,
        "ward_id_within_corp": 58,
        "assembly_constituency": "Gandhi Nagar",
        "parliamentary_constituency": "Bangalore Central",
        "center_lat": 12.9705434848927,
        "center_lng": 77.5778162812208
    },
    {
        "ward_number_369": 59,
        "slug": "nehru-nagar",
        "ward_name": "Nehru Nagar",
        "ward_name_kn": "ನೆಹರು ನಗರ",
        "zone_name": "Gandhinagara",
        "corporation": "Central",
        "corporation_id": 1,
        "ward_id_within_corp": 59,
        "assembly_constituency": "Gandhi Nagar",
        "parliamentary_constituency": "Bangalore Central",
        "center_lat": 12.9816617985,
        "center_lng": 77.5766272782873
    },
    {
        "ward_number_369": 60,
        "slug": "seshadripuram",
        "ward_name": "Seshadripuram",
        "ward_name_kn": "ಶೇಷಾದ್ರಿಪುರಂ",
        "zone_name": "Gandhinagara",
        "corporation": "Central",
        "corporation_id": 1,
        "ward_id_within_corp": 60,
        "assembly_constituency": "Gandhi Nagar",
        "parliamentary_constituency": "Bangalore Central",
        "center_lat": 12.9951838618488,
        "center_lng": 77.5757827339072
    },
    {
        "ward_number_369": 61,
        "slug": "dattatreya-ward",
        "ward_name": "Dattatreya Ward",
        "ward_name_kn": "ದತ್ತಾತ್ರೇಯ ವಾರ್ಡ್",
        "zone_name": "Gandhinagara",
        "corporation": "Central",
        "corporation_id": 1,
        "ward_id_within_corp": 61,
        "assembly_constituency": "Gandhi Nagar",
        "parliamentary_constituency": "Bangalore Central",
        "center_lat": 12.9963200483093,
        "center_lng": 77.5726215684584
    },
    {
        "ward_number_369": 62,
        "slug": "swatantra-palya-ward",
        "ward_name": "Swatantra Palya Ward",
        "ward_name_kn": "ಸ್ವತಂತ್ರ ಪಾಳ್ಯ ವಾರ್ಡ್",
        "zone_name": "Gandhinagara",
        "corporation": "Central",
        "corporation_id": 1,
        "ward_id_within_corp": 62,
        "assembly_constituency": "Gandhi Nagar",
        "parliamentary_constituency": "Bangalore Central",
        "center_lat": 12.9882781886328,
        "center_lng": 77.5683744082374
    },
    {
        "ward_number_369": 63,
        "slug": "okalipuram",
        "ward_name": "Okalipuram",
        "ward_name_kn": "ಓಕಳಿಪುರಂ",
        "zone_name": "Gandhinagara",
        "corporation": "Central",
        "corporation_id": 1,
        "ward_id_within_corp": 63,
        "assembly_constituency": "Gandhi Nagar",
        "parliamentary_constituency": "Bangalore Central",
        "center_lat": 12.9852127775138,
        "center_lng": 77.5646151328292
    },
    {
        "ward_number_369": 64,
        "slug": "raja-kempegowda-ward",
        "ward_name": "Raja Kempegowda ward",
        "ward_name_kn": "ರಾಜ ಕೆಂಪೇಗೌಡ ವಾರ್ಡ್",
        "zone_name": "Yelahanka",
        "corporation": "North",
        "corporation_id": 2,
        "ward_id_within_corp": 1,
        "assembly_constituency": "Yelahanka",
        "parliamentary_constituency": "Chikballapur",
        "center_lat": 13.0964957133914,
        "center_lng": 77.5941838568282
    },
    {
        "ward_number_369": 65,
        "slug": "aerocity",
        "ward_name": "Aerocity",
        "ward_name_kn": "ಏರೋಸಿಟಿ",
        "zone_name": "Yelahanka",
        "corporation": "North",
        "corporation_id": 2,
        "ward_id_within_corp": 2,
        "assembly_constituency": "Yelahanka",
        "parliamentary_constituency": "Chikballapur",
        "center_lat": 13.1123454999626,
        "center_lng": 77.6081799032225
    },
    {
        "ward_number_369": 66,
        "slug": "chowdeshwari-ward",
        "ward_name": "Chowdeshwari ward",
        "ward_name_kn": "ಚೌಡೇಶ್ವರಿ ವಾರ್ಡ್",
        "zone_name": "Yelahanka",
        "corporation": "North",
        "corporation_id": 2,
        "ward_id_within_corp": 3,
        "assembly_constituency": "Yelahanka",
        "parliamentary_constituency": "Chikballapur",
        "center_lat": 13.1210977598794,
        "center_lng": 77.5781436547691
    },
    {
        "ward_number_369": 67,
        "slug": "nyayanga-badavane",
        "ward_name": "Nyayanga Badavane",
        "ward_name_kn": "ನ್ಯಾಯಾಂಗ ಬಡಾವಣೆ",
        "zone_name": "Yelahanka",
        "corporation": "North",
        "corporation_id": 2,
        "ward_id_within_corp": 4,
        "assembly_constituency": "Yelahanka",
        "parliamentary_constituency": "Chikballapur",
        "center_lat": 13.0878844148478,
        "center_lng": 77.5871856228088
    },
    {
        "ward_number_369": 68,
        "slug": "yelahanka-satellite-town",
        "ward_name": "Yelahanka Satellite Town",
        "ward_name_kn": "ಯಲಹಂಕ ಸ್ಯಾಟಲೈಟ್‌ ಟೌನ್‌",
        "zone_name": "Yelahanka",
        "corporation": "North",
        "corporation_id": 2,
        "ward_id_within_corp": 5,
        "assembly_constituency": "Yelahanka",
        "parliamentary_constituency": "Chikballapur",
        "center_lat": 13.0981294590335,
        "center_lng": 77.5794748381155
    },
    {
        "ward_number_369": 69,
        "slug": "doddabettahalli",
        "ward_name": "Doddabettahalli",
        "ward_name_kn": "ದೊಡ್ಡಬೆಟ್ಟಹಳ್ಳಿ",
        "zone_name": "Yelahanka",
        "corporation": "North",
        "corporation_id": 2,
        "ward_id_within_corp": 6,
        "assembly_constituency": "Yelahanka",
        "parliamentary_constituency": "Chikballapur",
        "center_lat": 13.1000948635911,
        "center_lng": 77.5613939460171
    },
    {
        "ward_number_369": 70,
        "slug": "attur",
        "ward_name": "Attur",
        "ward_name_kn": "ಅಟ್ಟುರು",
        "zone_name": "Yelahanka",
        "corporation": "North",
        "corporation_id": 2,
        "ward_id_within_corp": 7,
        "assembly_constituency": "Yelahanka",
        "parliamentary_constituency": "Chikballapur",
        "center_lat": 13.0941320416105,
        "center_lng": 77.5600348679904
    },
    {
        "ward_number_369": 71,
        "slug": "singapura",
        "ward_name": "Singapura",
        "ward_name_kn": "ಸಿಂಗಾಪುರ",
        "zone_name": "Byatarayanapura",
        "corporation": "North",
        "corporation_id": 2,
        "ward_id_within_corp": 8,
        "assembly_constituency": "Byatarayanapura",
        "parliamentary_constituency": "Bangalore North",
        "center_lat": 13.0801334913194,
        "center_lng": 77.545846800564
    },
    {
        "ward_number_369": 72,
        "slug": "kuvempunagara",
        "ward_name": "Kuvempunagara",
        "ward_name_kn": "ಕುವೆಂಪುನಗರ",
        "zone_name": "Byatarayanapura",
        "corporation": "North",
        "corporation_id": 2,
        "ward_id_within_corp": 9,
        "assembly_constituency": "Byatarayanapura",
        "parliamentary_constituency": "Bangalore North",
        "center_lat": 13.0692988458289,
        "center_lng": 77.5413183596566
    },
    {
        "ward_number_369": 73,
        "slug": "vidyaranyapura",
        "ward_name": "Vidyaranyapura",
        "ward_name_kn": "ವಿದ್ಯಾರಣ್ಯಪುರ",
        "zone_name": "Byatarayanapura",
        "corporation": "North",
        "corporation_id": 2,
        "ward_id_within_corp": 10,
        "assembly_constituency": "Byatarayanapura",
        "parliamentary_constituency": "Bangalore North",
        "center_lat": 13.0720901331187,
        "center_lng": 77.5579048603671
    },
    {
        "ward_number_369": 74,
        "slug": "doddabommasandra",
        "ward_name": "Doddabommasandra",
        "ward_name_kn": "ದೊಡ್ಡಬೊಮ್ಮಸಂದ್ರ",
        "zone_name": "Byatarayanapura",
        "corporation": "North",
        "corporation_id": 2,
        "ward_id_within_corp": 11,
        "assembly_constituency": "Byatarayanapura",
        "parliamentary_constituency": "Bangalore North",
        "center_lat": 13.0562283699543,
        "center_lng": 77.5596357034734
    },
    {
        "ward_number_369": 75,
        "slug": "thindlu",
        "ward_name": "Thindlu",
        "ward_name_kn": "ತಿಂಡ್ಲು",
        "zone_name": "Byatarayanapura",
        "corporation": "North",
        "corporation_id": 2,
        "ward_id_within_corp": 12,
        "assembly_constituency": "Byatarayanapura",
        "parliamentary_constituency": "Bangalore North",
        "center_lat": 13.0775853863516,
        "center_lng": 77.5710904169733
    },
    {
        "ward_number_369": 76,
        "slug": "kodigehalli",
        "ward_name": "Kodigehalli",
        "ward_name_kn": "ಕೊಡಿಗೆಹಳ್ಳಿ",
        "zone_name": "Byatarayanapura",
        "corporation": "North",
        "corporation_id": 2,
        "ward_id_within_corp": 13,
        "assembly_constituency": "Byatarayanapura",
        "parliamentary_constituency": "Bangalore North",
        "center_lat": 13.0535948127087,
        "center_lng": 77.5745368566069
    },
    {
        "ward_number_369": 77,
        "slug": "rajiv-gandhi-nagar",
        "ward_name": "Rajiv Gandhi Nagar",
        "ward_name_kn": "ರಾಜೀವ್ ಗಾಂಧಿ ನಗರ",
        "zone_name": "Byatarayanapura",
        "corporation": "North",
        "corporation_id": 2,
        "ward_id_within_corp": 14,
        "assembly_constituency": "Byatarayanapura",
        "parliamentary_constituency": "Bangalore North",
        "center_lat": 13.0524669067893,
        "center_lng": 77.5849595062868
    },
    {
        "ward_number_369": 78,
        "slug": "byatarayanapura",
        "ward_name": "Byatarayanapura",
        "ward_name_kn": "ಬ್ಯಾಟರಾಯನಪುರ",
        "zone_name": "Byatarayanapura",
        "corporation": "North",
        "corporation_id": 2,
        "ward_id_within_corp": 15,
        "assembly_constituency": "Byatarayanapura",
        "parliamentary_constituency": "Bangalore North",
        "center_lat": 13.0666790957368,
        "center_lng": 77.5937062616195
    },
    {
        "ward_number_369": 79,
        "slug": "amruthahalli",
        "ward_name": "Amruthahalli",
        "ward_name_kn": "ಅಮೃತಹಳ್ಳಿ",
        "zone_name": "Byatarayanapura",
        "corporation": "North",
        "corporation_id": 2,
        "ward_id_within_corp": 16,
        "assembly_constituency": "Byatarayanapura",
        "parliamentary_constituency": "Bangalore North",
        "center_lat": 13.0650380217284,
        "center_lng": 77.6004355368105
    },
    {
        "ward_number_369": 80,
        "slug": "jakkur",
        "ward_name": "Jakkur",
        "ward_name_kn": "ಜಕ್ಕೂರು",
        "zone_name": "Byatarayanapura",
        "corporation": "North",
        "corporation_id": 2,
        "ward_id_within_corp": 17,
        "assembly_constituency": "Byatarayanapura",
        "parliamentary_constituency": "Bangalore North",
        "center_lat": 13.0695340406561,
        "center_lng": 77.6137806358045
    },
    {
        "ward_number_369": 81,
        "slug": "kempapura",
        "ward_name": "Kempapura",
        "ward_name_kn": "ಕೆಂಪಾಪುರ",
        "zone_name": "Byatarayanapura",
        "corporation": "North",
        "corporation_id": 2,
        "ward_id_within_corp": 18,
        "assembly_constituency": "Byatarayanapura",
        "parliamentary_constituency": "Bangalore North",
        "center_lat": 13.0483240600134,
        "center_lng": 77.6097906644878
    },
    {
        "ward_number_369": 82,
        "slug": "thanisandra",
        "ward_name": "Thanisandra",
        "ward_name_kn": "ಥಣಿಸಂದ್ರ",
        "zone_name": "Byatarayanapura",
        "corporation": "North",
        "corporation_id": 2,
        "ward_id_within_corp": 19,
        "assembly_constituency": "Byatarayanapura",
        "parliamentary_constituency": "Bangalore North",
        "center_lat": 13.0537727208807,
        "center_lng": 77.6325804751304
    },
    {
        "ward_number_369": 83,
        "slug": "sampigehalli",
        "ward_name": "Sampigehalli",
        "ward_name_kn": "ಸಂಪಿಗೆಹಳ್ಳಿ",
        "zone_name": "Byatarayanapura",
        "corporation": "North",
        "corporation_id": 2,
        "ward_id_within_corp": 20,
        "assembly_constituency": "Byatarayanapura",
        "parliamentary_constituency": "Bangalore North",
        "center_lat": 13.0808463850087,
        "center_lng": 77.6268465659604
    },
    {
        "ward_number_369": 84,
        "slug": "kogilu",
        "ward_name": "Kogilu",
        "ward_name_kn": "ಕೋಗಿಲು",
        "zone_name": "Byatarayanapura",
        "corporation": "North",
        "corporation_id": 2,
        "ward_id_within_corp": 21,
        "assembly_constituency": "Byatarayanapura",
        "parliamentary_constituency": "Bangalore North",
        "center_lat": 13.1034954086328,
        "center_lng": 77.6259054429092
    },
    {
        "ward_number_369": 85,
        "slug": "nagavara",
        "ward_name": "Nagavara",
        "ward_name_kn": "ನಾಗವಾರ",
        "zone_name": "Byatarayanapura",
        "corporation": "North",
        "corporation_id": 2,
        "ward_id_within_corp": 22,
        "assembly_constituency": "Sarvagnanagar",
        "parliamentary_constituency": "Bangalore Central",
        "center_lat": 13.0369969755432,
        "center_lng": 77.6168391894076
    },
    {
        "ward_number_369": 86,
        "slug": "hennur",
        "ward_name": "Hennur",
        "ward_name_kn": "ಹೆಣ್ಣೂರು",
        "zone_name": "Byatarayanapura",
        "corporation": "North",
        "corporation_id": 2,
        "ward_id_within_corp": 23,
        "assembly_constituency": "Sarvagnanagar",
        "parliamentary_constituency": "Bangalore Central",
        "center_lat": 13.0365443697319,
        "center_lng": 77.6302518083223
    },
    {
        "ward_number_369": 87,
        "slug": "hbr-layout",
        "ward_name": "HBR Layout",
        "ward_name_kn": "ಎಚ್.ಬಿ.ಆರ್. ಲೇಔಟ್",
        "zone_name": "Byatarayanapura",
        "corporation": "North",
        "corporation_id": 2,
        "ward_id_within_corp": 24,
        "assembly_constituency": "Sarvagnanagar",
        "parliamentary_constituency": "Bangalore Central",
        "center_lat": 13.0295378506319,
        "center_lng": 77.6316246140849
    },
    {
        "ward_number_369": 88,
        "slug": "govindapura",
        "ward_name": "Govindapura",
        "ward_name_kn": "ಗೋವಿಂದಪುರ",
        "zone_name": "Byatarayanapura",
        "corporation": "North",
        "corporation_id": 2,
        "ward_id_within_corp": 25,
        "assembly_constituency": "Sarvagnanagar",
        "parliamentary_constituency": "Bangalore Central",
        "center_lat": 13.0315496238922,
        "center_lng": 77.6162707768327
    },
    {
        "ward_number_369": 89,
        "slug": "samadhana-nagar",
        "ward_name": "Samadhana Nagar",
        "ward_name_kn": "ಸಮಾಧಾನ ನಗರ",
        "zone_name": "Byatarayanapura",
        "corporation": "North",
        "corporation_id": 2,
        "ward_id_within_corp": 26,
        "assembly_constituency": "Sarvagnanagar",
        "parliamentary_constituency": "Bangalore Central",
        "center_lat": 13.0235157972217,
        "center_lng": 77.616720367119
    },
    {
        "ward_number_369": 90,
        "slug": "k-g-halli",
        "ward_name": "K.G.Halli",
        "ward_name_kn": "ಕೆ.ಜಿ.ಹಳ್ಳಿ",
        "zone_name": "Byatarayanapura",
        "corporation": "North",
        "corporation_id": 2,
        "ward_id_within_corp": 27,
        "assembly_constituency": "Sarvagnanagar",
        "parliamentary_constituency": "Bangalore Central",
        "center_lat": 13.0199674636867,
        "center_lng": 77.6206760285063
    },
    {
        "ward_number_369": 91,
        "slug": "venkateshpuram",
        "ward_name": "Venkateshpuram",
        "ward_name_kn": "ವೆಂಕಟೇಶಪುರಂ",
        "zone_name": "Byatarayanapura",
        "corporation": "North",
        "corporation_id": 2,
        "ward_id_within_corp": 28,
        "assembly_constituency": "Sarvagnanagar",
        "parliamentary_constituency": "Bangalore Central",
        "center_lat": 13.0127531691157,
        "center_lng": 77.6194572355914
    },
    {
        "ward_number_369": 92,
        "slug": "lingarajpura",
        "ward_name": "Lingarajpura",
        "ward_name_kn": "ಲಿಂಗರಾಜಪುರ",
        "zone_name": "Byatarayanapura",
        "corporation": "North",
        "corporation_id": 2,
        "ward_id_within_corp": 29,
        "assembly_constituency": "Sarvagnanagar",
        "parliamentary_constituency": "Bangalore Central",
        "center_lat": 13.0140771617312,
        "center_lng": 77.626178645394
    },
    {
        "ward_number_369": 93,
        "slug": "kacharakanahalli",
        "ward_name": "Kacharakanahalli",
        "ward_name_kn": "ಕಾಚರಕನಹಳ್ಳಿ",
        "zone_name": "Byatarayanapura",
        "corporation": "North",
        "corporation_id": 2,
        "ward_id_within_corp": 30,
        "assembly_constituency": "Sarvagnanagar",
        "parliamentary_constituency": "Bangalore Central",
        "center_lat": 13.0209747285669,
        "center_lng": 77.6325966054912
    },
    {
        "ward_number_369": 94,
        "slug": "kalyan-nagar",
        "ward_name": "Kalyan Nagar",
        "ward_name_kn": "ಕಲ್ಯಾಣ ನಗರ",
        "zone_name": "Byatarayanapura",
        "corporation": "North",
        "corporation_id": 2,
        "ward_id_within_corp": 31,
        "assembly_constituency": "Sarvagnanagar",
        "parliamentary_constituency": "Bangalore Central",
        "center_lat": 13.015286286243,
        "center_lng": 77.6426866704057
    },
    {
        "ward_number_369": 95,
        "slug": "banaswadi",
        "ward_name": "Banaswadi",
        "ward_name_kn": "ಬಾಣಸವಾಡಿ",
        "zone_name": "Byatarayanapura",
        "corporation": "North",
        "corporation_id": 2,
        "ward_id_within_corp": 32,
        "assembly_constituency": "Sarvagnanagar",
        "parliamentary_constituency": "Bangalore Central",
        "center_lat": 13.0146774222966,
        "center_lng": 77.6518479113707
    },
    {
        "ward_number_369": 96,
        "slug": "hrbr-layout",
        "ward_name": "HRBR Layout",
        "ward_name_kn": "ಹೆಚ್‌ಆರ್‌ಬಿಆರ್ ಲೇಔಟ್",
        "zone_name": "Byatarayanapura",
        "corporation": "North",
        "corporation_id": 2,
        "ward_id_within_corp": 33,
        "assembly_constituency": "Sarvagnanagar",
        "parliamentary_constituency": "Bangalore Central",
        "center_lat": 13.0141906636318,
        "center_lng": 77.6343886538213
    },
    {
        "ward_number_369": 97,
        "slug": "subbayanapalya",
        "ward_name": "Subbayanapalya",
        "ward_name_kn": "ಸುಬ್ಬಯ್ಯನಪಾಳ್ಯ",
        "zone_name": "Byatarayanapura",
        "corporation": "North",
        "corporation_id": 2,
        "ward_id_within_corp": 34,
        "assembly_constituency": "Sarvagnanagar",
        "parliamentary_constituency": "Bangalore Central",
        "center_lat": 13.0082950835909,
        "center_lng": 77.639052431912
    },
    {
        "ward_number_369": 98,
        "slug": "kammanahalli",
        "ward_name": "Kammanahalli",
        "ward_name_kn": "ಕಮ್ಮನಹಳ್ಳಿ",
        "zone_name": "Byatarayanapura",
        "corporation": "North",
        "corporation_id": 2,
        "ward_id_within_corp": 35,
        "assembly_constituency": "Sarvagnanagar",
        "parliamentary_constituency": "Bangalore Central",
        "center_lat": 13.0080530379304,
        "center_lng": 77.6321646042209
    },
    {
        "ward_number_369": 99,
        "slug": "maruthi-seva-nagara",
        "ward_name": "Maruthi Seva Nagara",
        "ward_name_kn": "ಮಾರುತಿ ಸೇವಾ ನಗರ",
        "zone_name": "Byatarayanapura",
        "corporation": "North",
        "corporation_id": 2,
        "ward_id_within_corp": 36,
        "assembly_constituency": "Sarvagnanagar",
        "parliamentary_constituency": "Bangalore Central",
        "center_lat": 13.0041710312779,
        "center_lng": 77.6261032300736
    },
    {
        "ward_number_369": 100,
        "slug": "jeevanahalli",
        "ward_name": "Jeevanahalli",
        "ward_name_kn": "ಜೀವನಹಳ್ಳಿ",
        "zone_name": "Byatarayanapura",
        "corporation": "North",
        "corporation_id": 2,
        "ward_id_within_corp": 37,
        "assembly_constituency": "Sarvagnanagar",
        "parliamentary_constituency": "Bangalore Central",
        "center_lat": 12.9977683830319,
        "center_lng": 77.6333295191098
    },
    {
        "ward_number_369": 101,
        "slug": "shampura",
        "ward_name": "Shampura",
        "ward_name_kn": "ಶಾಂಪುರ",
        "zone_name": "Byatarayanapura",
        "corporation": "North",
        "corporation_id": 2,
        "ward_id_within_corp": 38,
        "assembly_constituency": "Pulakeshinagar",
        "parliamentary_constituency": "Bangalore North",
        "center_lat": 13.0282517210768,
        "center_lng": 77.6101079210951
    },
    {
        "ward_number_369": 102,
        "slug": "kaval-byrasandra",
        "ward_name": "Kaval Byrasandra",
        "ward_name_kn": "ಕಾವಲ್ ಬೈರಸಂದ್ರ",
        "zone_name": "Byatarayanapura",
        "corporation": "North",
        "corporation_id": 2,
        "ward_id_within_corp": 39,
        "assembly_constituency": "Pulakeshinagar",
        "parliamentary_constituency": "Bangalore North",
        "center_lat": 13.0213119849702,
        "center_lng": 77.6080005455314
    },
    {
        "ward_number_369": 103,
        "slug": "shakthi-nagar",
        "ward_name": "Shakthi Nagar",
        "ward_name_kn": "ಶಕ್ತಿ ನಗರ",
        "zone_name": "Byatarayanapura",
        "corporation": "North",
        "corporation_id": 2,
        "ward_id_within_corp": 40,
        "assembly_constituency": "Pulakeshinagar",
        "parliamentary_constituency": "Bangalore North",
        "center_lat": 13.0179931935583,
        "center_lng": 77.6155853021303
    },
    {
        "ward_number_369": 104,
        "slug": "periyar-nagar",
        "ward_name": "Periyar Nagar",
        "ward_name_kn": "ಪೆರಿಯಾರ್ ನಗರ",
        "zone_name": "Byatarayanapura",
        "corporation": "North",
        "corporation_id": 2,
        "ward_id_within_corp": 41,
        "assembly_constituency": "Pulakeshinagar",
        "parliamentary_constituency": "Bangalore North",
        "center_lat": 13.0131194962236,
        "center_lng": 77.612367180596
    },
    {
        "ward_number_369": 105,
        "slug": "aruna-asif-ali-ward",
        "ward_name": "Aruna Asif Ali Ward",
        "ward_name_kn": "ಅರುಣಾ ಆಸಿಫ್ ಅಲಿ ವಾರ್ಡ್",
        "zone_name": "Byatarayanapura",
        "corporation": "North",
        "corporation_id": 2,
        "ward_id_within_corp": 42,
        "assembly_constituency": "Pulakeshinagar",
        "parliamentary_constituency": "Bangalore North",
        "center_lat": 13.0152299348995,
        "center_lng": 77.6100909574979
    },
    {
        "ward_number_369": 106,
        "slug": "varalakshmi-nagar",
        "ward_name": "Varalakshmi Nagar",
        "ward_name_kn": "ವರಲಕ್ಷ್ಮಿ ನಗರ",
        "zone_name": "Byatarayanapura",
        "corporation": "North",
        "corporation_id": 2,
        "ward_id_within_corp": 43,
        "assembly_constituency": "Pulakeshinagar",
        "parliamentary_constituency": "Bangalore North",
        "center_lat": 13.0154649621078,
        "center_lng": 77.6021163012575
    },
    {
        "ward_number_369": 107,
        "slug": "doddanna-nagar",
        "ward_name": "Doddanna Nagar",
        "ward_name_kn": "ದೊಡ್ಡಣ್ಣ ನಗರ",
        "zone_name": "Byatarayanapura",
        "corporation": "North",
        "corporation_id": 2,
        "ward_id_within_corp": 44,
        "assembly_constituency": "Pulakeshinagar",
        "parliamentary_constituency": "Bangalore North",
        "center_lat": 13.0083013994701,
        "center_lng": 77.6085000133954
    },
    {
        "ward_number_369": 108,
        "slug": "kushal-nagar",
        "ward_name": "Kushal Nagar",
        "ward_name_kn": "ಕುಶಾಲ್ ನಗರ",
        "zone_name": "Byatarayanapura",
        "corporation": "North",
        "corporation_id": 2,
        "ward_id_within_corp": 45,
        "assembly_constituency": "Pulakeshinagar",
        "parliamentary_constituency": "Bangalore North",
        "center_lat": 13.0107436750676,
        "center_lng": 77.6141686625294
    },
    {
        "ward_number_369": 109,
        "slug": "sagayapuram",
        "ward_name": "Sagayapuram",
        "ward_name_kn": "ಸಗಾಯಪುರಂ",
        "zone_name": "Byatarayanapura",
        "corporation": "North",
        "corporation_id": 2,
        "ward_id_within_corp": 46,
        "assembly_constituency": "Pulakeshinagar",
        "parliamentary_constituency": "Bangalore North",
        "center_lat": 13.0058061727706,
        "center_lng": 77.6164887740259
    },
    {
        "ward_number_369": 110,
        "slug": "pulakeshi-nagar",
        "ward_name": "Pulakeshi Nagar",
        "ward_name_kn": "ಪುಲಕೇಶಿ ನಗರ",
        "zone_name": "Byatarayanapura",
        "corporation": "North",
        "corporation_id": 2,
        "ward_id_within_corp": 47,
        "assembly_constituency": "Pulakeshinagar",
        "parliamentary_constituency": "Bangalore North",
        "center_lat": 12.9957611933629,
        "center_lng": 77.6149916517982
    },
    {
        "ward_number_369": 111,
        "slug": "s-k-garden",
        "ward_name": "S.K Garden",
        "ward_name_kn": "ಎಸ್.ಕೆ. ಗಾರ್ಡನ್",
        "zone_name": "Byatarayanapura",
        "corporation": "North",
        "corporation_id": 2,
        "ward_id_within_corp": 48,
        "assembly_constituency": "Pulakeshinagar",
        "parliamentary_constituency": "Bangalore North",
        "center_lat": 12.9973895281468,
        "center_lng": 77.6060858412856
    },
    {
        "ward_number_369": 112,
        "slug": "jaya-chamarajendra-nagara",
        "ward_name": "Jaya Chamarajendra Nagara",
        "ward_name_kn": "ಜಯ ಚಾಮರಾಜೇಂದ್ರ ನಗರ",
        "zone_name": "Yelahanka",
        "corporation": "North",
        "corporation_id": 2,
        "ward_id_within_corp": 49,
        "assembly_constituency": "Hebbal",
        "parliamentary_constituency": "Bangalore North",
        "center_lat": 13.0144702499191,
        "center_lng": 77.595354721619
    },
    {
        "ward_number_369": 113,
        "slug": "dinnur",
        "ward_name": "Dinnur",
        "ward_name_kn": "ದಿಣ್ಣೂರು",
        "zone_name": "Yelahanka",
        "corporation": "North",
        "corporation_id": 2,
        "ward_id_within_corp": 50,
        "assembly_constituency": "Hebbal",
        "parliamentary_constituency": "Bangalore North",
        "center_lat": 13.0278039583722,
        "center_lng": 77.5988752905097
    },
    {
        "ward_number_369": 114,
        "slug": "manorayanapalya",
        "ward_name": "Manorayanapalya",
        "ward_name_kn": "ಮನೋರಾಯನಪಾಳ್ಯ",
        "zone_name": "Yelahanka",
        "corporation": "North",
        "corporation_id": 2,
        "ward_id_within_corp": 51,
        "assembly_constituency": "Hebbal",
        "parliamentary_constituency": "Bangalore North",
        "center_lat": 13.0307346678014,
        "center_lng": 77.603676023609
    },
    {
        "ward_number_369": 115,
        "slug": "vishwanatha-nagenahalli",
        "ward_name": "Vishwanatha Nagenahalli",
        "ward_name_kn": "ವಿಶ್ವನಾಥ ನಾಗೇನಹಳ್ಳಿ",
        "zone_name": "Yelahanka",
        "corporation": "North",
        "corporation_id": 2,
        "ward_id_within_corp": 52,
        "assembly_constituency": "Hebbal",
        "parliamentary_constituency": "Bangalore North",
        "center_lat": 13.0374094786975,
        "center_lng": 77.6033984247414
    },
    {
        "ward_number_369": 116,
        "slug": "r-t-nagar",
        "ward_name": "R.T Nagar",
        "ward_name_kn": "ಆರ್.ಟಿ ನಗರ",
        "zone_name": "Yelahanka",
        "corporation": "North",
        "corporation_id": 2,
        "ward_id_within_corp": 53,
        "assembly_constituency": "Hebbal",
        "parliamentary_constituency": "Bangalore North",
        "center_lat": 13.0266878399539,
        "center_lng": 77.5977371848489
    },
    {
        "ward_number_369": 117,
        "slug": "gangenahalli",
        "ward_name": "Gangenahalli",
        "ward_name_kn": "ಗಂಗೇನಹಳ್ಳಿ",
        "zone_name": "Yelahanka",
        "corporation": "North",
        "corporation_id": 2,
        "ward_id_within_corp": 54,
        "assembly_constituency": "Hebbal",
        "parliamentary_constituency": "Bangalore North",
        "center_lat": 13.0182405865856,
        "center_lng": 77.5887137258217
    },
    {
        "ward_number_369": 118,
        "slug": "ganganagar",
        "ward_name": "Ganganagar",
        "ward_name_kn": "ಗಂಗಾನಗರ",
        "zone_name": "Yelahanka",
        "corporation": "North",
        "corporation_id": 2,
        "ward_id_within_corp": 55,
        "assembly_constituency": "Hebbal",
        "parliamentary_constituency": "Bangalore North",
        "center_lat": 13.0271351428109,
        "center_lng": 77.5907013489536
    },
    {
        "ward_number_369": 119,
        "slug": "hebbal",
        "ward_name": "Hebbal",
        "ward_name_kn": "ಹೆಬ್ಬಾಳ",
        "zone_name": "Yelahanka",
        "corporation": "North",
        "corporation_id": 2,
        "ward_id_within_corp": 56,
        "assembly_constituency": "Hebbal",
        "parliamentary_constituency": "Bangalore North",
        "center_lat": 13.0350710838868,
        "center_lng": 77.592547605667
    },
    {
        "ward_number_369": 120,
        "slug": "bhoopasandra",
        "ward_name": "Bhoopasandra",
        "ward_name_kn": "ಭೂಪಸಂದ್ರ",
        "zone_name": "Yelahanka",
        "corporation": "North",
        "corporation_id": 2,
        "ward_id_within_corp": 57,
        "assembly_constituency": "Hebbal",
        "parliamentary_constituency": "Bangalore North",
        "center_lat": 13.0363315688875,
        "center_lng": 77.5809797779582
    },
    {
        "ward_number_369": 121,
        "slug": "nagashettyhalli",
        "ward_name": "Nagashettyhalli",
        "ward_name_kn": "ನಾಗಶೆಟ್ಟಿಹಳ್ಳಿ",
        "zone_name": "Yelahanka",
        "corporation": "North",
        "corporation_id": 2,
        "ward_id_within_corp": 58,
        "assembly_constituency": "Hebbal",
        "parliamentary_constituency": "Bangalore North",
        "center_lat": 13.0397896668845,
        "center_lng": 77.5732258930019
    },
    {
        "ward_number_369": 122,
        "slug": "geddalahalli",
        "ward_name": "Geddalahalli",
        "ward_name_kn": "ಗೆದ್ದಲಹಳ್ಳಿ",
        "zone_name": "Yelahanka",
        "corporation": "North",
        "corporation_id": 2,
        "ward_id_within_corp": 59,
        "assembly_constituency": "Hebbal",
        "parliamentary_constituency": "Bangalore North",
        "center_lat": 13.0372350642102,
        "center_lng": 77.5703606303821
    },
    {
        "ward_number_369": 123,
        "slug": "jalahalli",
        "ward_name": "Jalahalli",
        "ward_name_kn": "ಜಾಲಹಳ್ಳಿ",
        "zone_name": "Yelahanka",
        "corporation": "North",
        "corporation_id": 2,
        "ward_id_within_corp": 60,
        "assembly_constituency": "RR Nagar",
        "parliamentary_constituency": "Bangalore Rural",
        "center_lat": 13.0475498335236,
        "center_lng": 77.5370053610912
    },
    {
        "ward_number_369": 124,
        "slug": "hmt-ward",
        "ward_name": "HMT Ward",
        "ward_name_kn": "ಎಚ್ಎಮ್.ಟಿ ವಾರ್ಡ್",
        "zone_name": "Yelahanka",
        "corporation": "North",
        "corporation_id": 2,
        "ward_id_within_corp": 61,
        "assembly_constituency": "RR Nagar",
        "parliamentary_constituency": "Bangalore Rural",
        "center_lat": 13.0435394999486,
        "center_lng": 77.5444827952127
    },
    {
        "ward_number_369": 125,
        "slug": "brundavana-nagara",
        "ward_name": "Brundavana Nagara",
        "ward_name_kn": "ಬೃಂದಾವನ ನಗರ",
        "zone_name": "Yelahanka",
        "corporation": "North",
        "corporation_id": 2,
        "ward_id_within_corp": 62,
        "assembly_constituency": "RR Nagar",
        "parliamentary_constituency": "Bangalore Rural",
        "center_lat": 13.0316597179252,
        "center_lng": 77.5557311681554
    },
    {
        "ward_number_369": 126,
        "slug": "j-p-park",
        "ward_name": "J.P PARK",
        "ward_name_kn": "ಜೆಪಿ ಪಾರ್ಕ್",
        "zone_name": "Yelahanka",
        "corporation": "North",
        "corporation_id": 2,
        "ward_id_within_corp": 63,
        "assembly_constituency": "RR Nagar",
        "parliamentary_constituency": "Bangalore Rural",
        "center_lat": 13.0324704191955,
        "center_lng": 77.5514450970892
    },
    {
        "ward_number_369": 127,
        "slug": "yeshwanthpura",
        "ward_name": "Yeshwanthpura",
        "ward_name_kn": "ಯಶವಂತಪುರ",
        "zone_name": "Yelahanka",
        "corporation": "North",
        "corporation_id": 2,
        "ward_id_within_corp": 64,
        "assembly_constituency": "RR Nagar",
        "parliamentary_constituency": "Bangalore Rural",
        "center_lat": 13.0235564345984,
        "center_lng": 77.554629391434
    },
    {
        "ward_number_369": 128,
        "slug": "abbigere",
        "ward_name": "Abbigere",
        "ward_name_kn": "ಅಬ್ಬಿಗೆರೆ",
        "zone_name": "Yelahanka",
        "corporation": "North",
        "corporation_id": 2,
        "ward_id_within_corp": 65,
        "assembly_constituency": "Dasarahalli",
        "parliamentary_constituency": "Bangalore North",
        "center_lat": 13.0779208918761,
        "center_lng": 77.5204790423091
    },
    {
        "ward_number_369": 129,
        "slug": "kammagondanahalli",
        "ward_name": "Kammagondanahalli",
        "ward_name_kn": "ಕಮ್ಮಗೊಂಡನಹಳ್ಳಿ",
        "zone_name": "Yelahanka",
        "corporation": "North",
        "corporation_id": 2,
        "ward_id_within_corp": 66,
        "assembly_constituency": "Dasarahalli",
        "parliamentary_constituency": "Bangalore North",
        "center_lat": 13.0674685475336,
        "center_lng": 77.5284540756547
    },
    {
        "ward_number_369": 130,
        "slug": "shettihalli",
        "ward_name": "Shettihalli",
        "ward_name_kn": "ಶೆಟ್ಟಿಹಳ್ಳಿ",
        "zone_name": "Yelahanka",
        "corporation": "North",
        "corporation_id": 2,
        "ward_id_within_corp": 67,
        "assembly_constituency": "Dasarahalli",
        "parliamentary_constituency": "Bangalore North",
        "center_lat": 13.0607741768075,
        "center_lng": 77.5217341693636
    },
    {
        "ward_number_369": 131,
        "slug": "mallasandra",
        "ward_name": "Mallasandra",
        "ward_name_kn": "ಮಲ್ಲಸಂದ್ರ",
        "zone_name": "Yelahanka",
        "corporation": "North",
        "corporation_id": 2,
        "ward_id_within_corp": 68,
        "assembly_constituency": "Dasarahalli",
        "parliamentary_constituency": "Bangalore North",
        "center_lat": 13.0559529967128,
        "center_lng": 77.5150652928545
    },
    {
        "ward_number_369": 132,
        "slug": "bagalagunte",
        "ward_name": "Bagalagunte",
        "ward_name_kn": "ಬಾಗಲಗುಂಟೆ",
        "zone_name": "Yelahanka",
        "corporation": "North",
        "corporation_id": 2,
        "ward_id_within_corp": 69,
        "assembly_constituency": "Dasarahalli",
        "parliamentary_constituency": "Bangalore North",
        "center_lat": 13.0619053296683,
        "center_lng": 77.5004378519745
    },
    {
        "ward_number_369": 133,
        "slug": "manjunatha-nagar",
        "ward_name": "Manjunatha Nagar",
        "ward_name_kn": "ಮಂಜುನಾಥ ನಗರ",
        "zone_name": "Yelahanka",
        "corporation": "North",
        "corporation_id": 2,
        "ward_id_within_corp": 70,
        "assembly_constituency": "Dasarahalli",
        "parliamentary_constituency": "Bangalore North",
        "center_lat": 13.052857467891,
        "center_lng": 77.4999278258907
    },
    {
        "ward_number_369": 134,
        "slug": "nele-maheshwaramma-temple-ward",
        "ward_name": "Nele Maheshwaramma Temple Ward",
        "ward_name_kn": "ನೆಲೆ ಮಹೇಶ್ವರಮ್ಮ ದೇವಸ್ಥಾನ ವಾರ್ಡ್",
        "zone_name": "Yelahanka",
        "corporation": "North",
        "corporation_id": 2,
        "ward_id_within_corp": 71,
        "assembly_constituency": "Dasarahalli",
        "parliamentary_constituency": "Bangalore North",
        "center_lat": 13.0483033295172,
        "center_lng": 77.5105577012484
    },
    {
        "ward_number_369": 135,
        "slug": "dasarahalli",
        "ward_name": "Dasarahalli",
        "ward_name_kn": "ದಾಸರಹಳ್ಳಿ",
        "zone_name": "Yelahanka",
        "corporation": "North",
        "corporation_id": 2,
        "ward_id_within_corp": 72,
        "assembly_constituency": "Dasarahalli",
        "parliamentary_constituency": "Bangalore North",
        "center_lat": 13.0462813106195,
        "center_lng": 77.5163644474508
    },
    {
        "ward_number_369": 136,
        "slug": "k-narayanapura",
        "ward_name": "K Narayanapura",
        "ward_name_kn": "ಕೆ ನಾರಾಯಣಪುರ",
        "zone_name": "K.R. Pura",
        "corporation": "East",
        "corporation_id": 3,
        "ward_id_within_corp": 1,
        "assembly_constituency": "K R Pura",
        "parliamentary_constituency": "Bangalore North",
        "center_lat": 13.0615579921385,
        "center_lng": 77.6441882469611
    },
    {
        "ward_number_369": 137,
        "slug": "horamavu",
        "ward_name": "Horamavu",
        "ward_name_kn": "ಹೊರಮಾವು",
        "zone_name": "K.R. Pura",
        "corporation": "East",
        "corporation_id": 3,
        "ward_id_within_corp": 2,
        "assembly_constituency": "K R Pura",
        "parliamentary_constituency": "Bangalore North",
        "center_lat": 13.0460409170207,
        "center_lng": 77.6592087754014
    },
    {
        "ward_number_369": 138,
        "slug": "chellakere",
        "ward_name": "Chellakere",
        "ward_name_kn": "ಚೆಲ್ಲಕೆರೆ",
        "zone_name": "K.R. Pura",
        "corporation": "East",
        "corporation_id": 3,
        "ward_id_within_corp": 3,
        "assembly_constituency": "K R Pura",
        "parliamentary_constituency": "Bangalore North",
        "center_lat": 13.0324563875817,
        "center_lng": 77.6425850397061
    },
    {
        "ward_number_369": 139,
        "slug": "babusab-palya",
        "ward_name": "Babusab Palya",
        "ward_name_kn": "ಬಾಬುಸಾಬ್ ಪಾಳ್ಯ",
        "zone_name": "K.R. Pura",
        "corporation": "East",
        "corporation_id": 3,
        "ward_id_within_corp": 4,
        "assembly_constituency": "K R Pura",
        "parliamentary_constituency": "Bangalore North",
        "center_lat": 13.0238105743243,
        "center_lng": 77.6543489183022
    },
    {
        "ward_number_369": 140,
        "slug": "hoysala-nagara-east",
        "ward_name": "Hoysala Nagara East",
        "ward_name_kn": "ಹೊಯ್ಸಳ ನಗರ ಪೂರ್ವ",
        "zone_name": "K.R. Pura",
        "corporation": "East",
        "corporation_id": 3,
        "ward_id_within_corp": 5,
        "assembly_constituency": "K R Pura",
        "parliamentary_constituency": "Bangalore North",
        "center_lat": 13.0191098392035,
        "center_lng": 77.6683700090245
    },
    {
        "ward_number_369": 141,
        "slug": "kalkere",
        "ward_name": "Kalkere",
        "ward_name_kn": "ಕಲ್ಕೆರೆ",
        "zone_name": "K.R. Pura",
        "corporation": "East",
        "corporation_id": 3,
        "ward_id_within_corp": 6,
        "assembly_constituency": "K R Pura",
        "parliamentary_constituency": "Bangalore North",
        "center_lat": 13.0336185321924,
        "center_lng": 77.6741511329157
    },
    {
        "ward_number_369": 142,
        "slug": "k-chennasandra",
        "ward_name": "K Chennasandra",
        "ward_name_kn": "ಕೆ ಚೆನ್ನಸಂದ್ರ",
        "zone_name": "K.R. Pura",
        "corporation": "East",
        "corporation_id": 3,
        "ward_id_within_corp": 7,
        "assembly_constituency": "K R Pura",
        "parliamentary_constituency": "Bangalore North",
        "center_lat": 13.0313573377471,
        "center_lng": 77.6826001164613
    },
    {
        "ward_number_369": 143,
        "slug": "anandapura",
        "ward_name": "Anandapura",
        "ward_name_kn": "ಆನಂದಪುರ",
        "zone_name": "K.R. Pura",
        "corporation": "East",
        "corporation_id": 3,
        "ward_id_within_corp": 8,
        "assembly_constituency": "K R Pura",
        "parliamentary_constituency": "Bangalore North",
        "center_lat": 13.015445671111,
        "center_lng": 77.6893761152095
    },
    {
        "ward_number_369": 144,
        "slug": "bhattarahalli",
        "ward_name": "Bhattarahalli",
        "ward_name_kn": "ಭಟ್ಟರಹಳ್ಳಿ",
        "zone_name": "K.R. Pura",
        "corporation": "East",
        "corporation_id": 3,
        "ward_id_within_corp": 9,
        "assembly_constituency": "K R Pura",
        "parliamentary_constituency": "Bangalore North",
        "center_lat": 13.0254777528971,
        "center_lng": 77.7093894105458
    },
    {
        "ward_number_369": 145,
        "slug": "basavanapura",
        "ward_name": "Basavanapura",
        "ward_name_kn": "ಬಸವನಪುರ",
        "zone_name": "K.R. Pura",
        "corporation": "East",
        "corporation_id": 3,
        "ward_id_within_corp": 10,
        "assembly_constituency": "K R Pura",
        "parliamentary_constituency": "Bangalore North",
        "center_lat": 13.0168402649536,
        "center_lng": 77.7169943532844
    },
    {
        "ward_number_369": 146,
        "slug": "krishnanagar",
        "ward_name": "Krishnanagar",
        "ward_name_kn": "ಕೃಷ್ಣನಗರ",
        "zone_name": "K.R. Pura",
        "corporation": "East",
        "corporation_id": 3,
        "ward_id_within_corp": 11,
        "assembly_constituency": "K R Pura",
        "parliamentary_constituency": "Bangalore North",
        "center_lat": 13.0084545203499,
        "center_lng": 77.7115510683899
    },
    {
        "ward_number_369": 147,
        "slug": "devasandra",
        "ward_name": "Devasandra",
        "ward_name_kn": "ದೇವಸಂದ್ರ",
        "zone_name": "K.R. Pura",
        "corporation": "East",
        "corporation_id": 3,
        "ward_id_within_corp": 12,
        "assembly_constituency": "K R Pura",
        "parliamentary_constituency": "Bangalore North",
        "center_lat": 13.0026316330265,
        "center_lng": 77.7005314141791
    },
    {
        "ward_number_369": 148,
        "slug": "rajarajeshwari-temple-ward",
        "ward_name": "Rajarajeshwari Temple ward",
        "ward_name_kn": "ರಾಜರಾಜೇಶ್ವರಿ ದೇವಸ್ಥಾನ ವಾರ್ಡ್",
        "zone_name": "K.R. Pura",
        "corporation": "East",
        "corporation_id": 3,
        "ward_id_within_corp": 13,
        "assembly_constituency": "K R Pura",
        "parliamentary_constituency": "Bangalore North",
        "center_lat": 13.0024623260398,
        "center_lng": 77.6916906784501
    },
    {
        "ward_number_369": 149,
        "slug": "k-r-pura",
        "ward_name": "K.R Pura",
        "ward_name_kn": "ಕೆ ಆರ್ ಪುರ",
        "zone_name": "K.R. Pura",
        "corporation": "East",
        "corporation_id": 3,
        "ward_id_within_corp": 14,
        "assembly_constituency": "K R Pura",
        "parliamentary_constituency": "Bangalore North",
        "center_lat": 13.0112662314164,
        "center_lng": 77.697228662967
    },
    {
        "ward_number_369": 150,
        "slug": "ramamurthy-nagara",
        "ward_name": "Ramamurthy Nagara",
        "ward_name_kn": "ರಾಮಮೂರ್ತಿ ನಗರ",
        "zone_name": "K.R. Pura",
        "corporation": "East",
        "corporation_id": 3,
        "ward_id_within_corp": 15,
        "assembly_constituency": "K R Pura",
        "parliamentary_constituency": "Bangalore North",
        "center_lat": 13.0145981685832,
        "center_lng": 77.6776942026962
    },
    {
        "ward_number_369": 151,
        "slug": "kotthur",
        "ward_name": "Kotthur",
        "ward_name_kn": "ಕೊತ್ತೂರು",
        "zone_name": "K.R. Pura",
        "corporation": "East",
        "corporation_id": 3,
        "ward_id_within_corp": 16,
        "assembly_constituency": "K R Pura",
        "parliamentary_constituency": "Bangalore North",
        "center_lat": 13.0067209690653,
        "center_lng": 77.6769632520054
    },
    {
        "ward_number_369": 152,
        "slug": "vijinapura",
        "ward_name": "Vijinapura",
        "ward_name_kn": "ವಿಜಿನಾಪುರ",
        "zone_name": "K.R. Pura",
        "corporation": "East",
        "corporation_id": 3,
        "ward_id_within_corp": 17,
        "assembly_constituency": "K R Pura",
        "parliamentary_constituency": "Bangalore North",
        "center_lat": 13.0043166969989,
        "center_lng": 77.6738901352649
    },
    {
        "ward_number_369": 153,
        "slug": "dooravaninagar",
        "ward_name": "Dooravaninagar",
        "ward_name_kn": "ದೂರವಾಣಿನಗರ",
        "zone_name": "K.R. Pura",
        "corporation": "East",
        "corporation_id": 3,
        "ward_id_within_corp": 18,
        "assembly_constituency": "K R Pura",
        "parliamentary_constituency": "Bangalore North",
        "center_lat": 13.0073882341939,
        "center_lng": 77.6664128333391
    },
    {
        "ward_number_369": 154,
        "slug": "k-s-nissar-ahmed-ward",
        "ward_name": "K.S. Nissar Ahmed Ward",
        "ward_name_kn": "ಕೆ. ಎಸ್. ನಿಸಾರ್ ಅಹಮದ್ ವಾರ್ಡ್",
        "zone_name": "K.R. Pura",
        "corporation": "East",
        "corporation_id": 3,
        "ward_id_within_corp": 19,
        "assembly_constituency": "K R Pura",
        "parliamentary_constituency": "Bangalore North",
        "center_lat": 12.9977441913317,
        "center_lng": 77.6691526136233
    },
    {
        "ward_number_369": 155,
        "slug": "a-narayanapura",
        "ward_name": "A Narayanapura",
        "ward_name_kn": "ಎ ನಾರಾಯಣಪುರ",
        "zone_name": "K.R. Pura",
        "corporation": "East",
        "corporation_id": 3,
        "ward_id_within_corp": 20,
        "assembly_constituency": "K R Pura",
        "parliamentary_constituency": "Bangalore North",
        "center_lat": 12.9958522512548,
        "center_lng": 77.6802888501367
    },
    {
        "ward_number_369": 156,
        "slug": "uday-nagar",
        "ward_name": "Uday Nagar",
        "ward_name_kn": "ಉದಯ್ ನಗರ",
        "zone_name": "K.R. Pura",
        "corporation": "East",
        "corporation_id": 3,
        "ward_id_within_corp": 21,
        "assembly_constituency": "K R Pura",
        "parliamentary_constituency": "Bangalore North",
        "center_lat": 12.9905827371547,
        "center_lng": 77.6726442291086
    },
    {
        "ward_number_369": 157,
        "slug": "mahadevapura",
        "ward_name": "Mahadevapura",
        "ward_name_kn": "ಮಹದೇವಪುರ",
        "zone_name": "K.R. Pura",
        "corporation": "East",
        "corporation_id": 3,
        "ward_id_within_corp": 22,
        "assembly_constituency": "K R Pura",
        "parliamentary_constituency": "Bangalore North",
        "center_lat": 12.9878467645092,
        "center_lng": 77.6851235934851
    },
    {
        "ward_number_369": 158,
        "slug": "sangama-ward",
        "ward_name": "Sangama Ward",
        "ward_name_kn": "ಸಂಗಮ ವಾರ್ಡ್",
        "zone_name": "K.R. Pura",
        "corporation": "East",
        "corporation_id": 3,
        "ward_id_within_corp": 23,
        "assembly_constituency": "K R Pura",
        "parliamentary_constituency": "Bangalore North",
        "center_lat": 12.9671596802988,
        "center_lng": 77.6837171081903
    },
    {
        "ward_number_369": 159,
        "slug": "vignananagara",
        "ward_name": "Vignananagara",
        "ward_name_kn": "ವಿಜ್ಞಾನನಗರ",
        "zone_name": "K.R. Pura",
        "corporation": "East",
        "corporation_id": 3,
        "ward_id_within_corp": 24,
        "assembly_constituency": "K R Pura",
        "parliamentary_constituency": "Bangalore North",
        "center_lat": 12.9709269911653,
        "center_lng": 77.6755872756321
    },
    {
        "ward_number_369": 160,
        "slug": "l-b-shastri-nagar",
        "ward_name": "L.B Shastri Nagar",
        "ward_name_kn": "ಎಲ್.ಬಿ.ಶಾಸ್ತ್ರಿ ನಗರ",
        "zone_name": "K.R. Pura",
        "corporation": "East",
        "corporation_id": 3,
        "ward_id_within_corp": 25,
        "assembly_constituency": "K R Pura",
        "parliamentary_constituency": "Bangalore North",
        "center_lat": 12.9659041071117,
        "center_lng": 77.6715178219521
    },
    {
        "ward_number_369": 161,
        "slug": "jagadish-nagar",
        "ward_name": "Jagadish Nagar",
        "ward_name_kn": "ಜಗದೀಶ್ ನಗರ",
        "zone_name": "K.R. Pura",
        "corporation": "East",
        "corporation_id": 3,
        "ward_id_within_corp": 26,
        "assembly_constituency": "K R Pura",
        "parliamentary_constituency": "Bangalore North",
        "center_lat": 12.9655096550638,
        "center_lng": 77.6633493797332
    },
    {
        "ward_number_369": 162,
        "slug": "vibhootipura",
        "ward_name": "Vibhootipura",
        "ward_name_kn": "ವಿಭೂತಿಪುರ",
        "zone_name": "K.R. Pura",
        "corporation": "East",
        "corporation_id": 3,
        "ward_id_within_corp": 27,
        "assembly_constituency": "K R Pura",
        "parliamentary_constituency": "Bangalore North",
        "center_lat": 12.955996548269,
        "center_lng": 77.6715905497364
    },
    {
        "ward_number_369": 163,
        "slug": "byrathi",
        "ward_name": "Byrathi",
        "ward_name_kn": "ಬೈರತಿ",
        "zone_name": "Mahadevapura",
        "corporation": "East",
        "corporation_id": 3,
        "ward_id_within_corp": 28,
        "assembly_constituency": "Mahadevapura",
        "parliamentary_constituency": "Bangalore Central",
        "center_lat": 13.04936758621,
        "center_lng": 77.6711408825619
    },
    {
        "ward_number_369": 164,
        "slug": "hoodi",
        "ward_name": "Hoodi",
        "ward_name_kn": "ಹೂಡಿ",
        "zone_name": "Mahadevapura",
        "corporation": "East",
        "corporation_id": 3,
        "ward_id_within_corp": 29,
        "assembly_constituency": "Mahadevapura",
        "parliamentary_constituency": "Bangalore Central",
        "center_lat": 12.9984062277019,
        "center_lng": 77.7244044747544
    },
    {
        "ward_number_369": 165,
        "slug": "belathur",
        "ward_name": "Belathur",
        "ward_name_kn": "ಬೆಳತ್ತೂರ್",
        "zone_name": "Mahadevapura",
        "corporation": "East",
        "corporation_id": 3,
        "ward_id_within_corp": 30,
        "assembly_constituency": "Mahadevapura",
        "parliamentary_constituency": "Bangalore Central",
        "center_lat": 12.9996239617281,
        "center_lng": 77.7423944550562
    },
    {
        "ward_number_369": 166,
        "slug": "kadugodi",
        "ward_name": "Kadugodi",
        "ward_name_kn": "ಕಾಡುಗೋಡಿ",
        "zone_name": "Mahadevapura",
        "corporation": "East",
        "corporation_id": 3,
        "ward_id_within_corp": 31,
        "assembly_constituency": "Mahadevapura",
        "parliamentary_constituency": "Bangalore Central",
        "center_lat": 12.9939191201836,
        "center_lng": 77.7662724565495
    },
    {
        "ward_number_369": 167,
        "slug": "channasandra",
        "ward_name": "Channasandra",
        "ward_name_kn": "ಚನ್ನಸಂದ್ರ",
        "zone_name": "Mahadevapura",
        "corporation": "East",
        "corporation_id": 3,
        "ward_id_within_corp": 32,
        "assembly_constituency": "Mahadevapura",
        "parliamentary_constituency": "Bangalore Central",
        "center_lat": 12.9829024269137,
        "center_lng": 77.768461323853
    },
    {
        "ward_number_369": 168,
        "slug": "s-m-krishna-ward",
        "ward_name": "S.M Krishna Ward",
        "ward_name_kn": "ಎಸ್.ಎಂ ಕೃಷ್ಣ ವಾರ್ಡ್",
        "zone_name": "Mahadevapura",
        "corporation": "East",
        "corporation_id": 3,
        "ward_id_within_corp": 33,
        "assembly_constituency": "Mahadevapura",
        "parliamentary_constituency": "Bangalore Central",
        "center_lat": 12.9761095854757,
        "center_lng": 77.7417298681851
    },
    {
        "ward_number_369": 169,
        "slug": "kaveri-nagara",
        "ward_name": "Kaveri Nagara",
        "ward_name_kn": "ಕಾವೇರಿ ನಗರ",
        "zone_name": "Mahadevapura",
        "corporation": "East",
        "corporation_id": 3,
        "ward_id_within_corp": 34,
        "assembly_constituency": "Mahadevapura",
        "parliamentary_constituency": "Bangalore Central",
        "center_lat": 12.989368010696,
        "center_lng": 77.7172974100946
    },
    {
        "ward_number_369": 170,
        "slug": "garudachar-palya",
        "ward_name": "Garudachar Palya",
        "ward_name_kn": "ಗರುಡಾಚಾರ್ ಪಾಳ್ಯ",
        "zone_name": "Mahadevapura",
        "corporation": "East",
        "corporation_id": 3,
        "ward_id_within_corp": 35,
        "assembly_constituency": "Mahadevapura",
        "parliamentary_constituency": "Bangalore Central",
        "center_lat": 12.990222810247,
        "center_lng": 77.6978221345467
    },
    {
        "ward_number_369": 171,
        "slug": "bharath-aikya-ward",
        "ward_name": "Bharath Aikya Ward",
        "ward_name_kn": "ಭಾರತ್ ಐಕ್ಯ ವಾರ್ಡ್",
        "zone_name": "Mahadevapura",
        "corporation": "East",
        "corporation_id": 3,
        "ward_id_within_corp": 36,
        "assembly_constituency": "Mahadevapura",
        "parliamentary_constituency": "Bangalore Central",
        "center_lat": 12.9763305609692,
        "center_lng": 77.7095548587938
    },
    {
        "ward_number_369": 172,
        "slug": "kundalahalli",
        "ward_name": "Kundalahalli",
        "ward_name_kn": "ಕುಂದಲಹಳ್ಳಿ",
        "zone_name": "Mahadevapura",
        "corporation": "East",
        "corporation_id": 3,
        "ward_id_within_corp": 37,
        "assembly_constituency": "Mahadevapura",
        "parliamentary_constituency": "Bangalore Central",
        "center_lat": 12.9599064047934,
        "center_lng": 77.7246203942354
    },
    {
        "ward_number_369": 173,
        "slug": "whitefield",
        "ward_name": "Whitefield",
        "ward_name_kn": "ವೈಟ್‌ಫೀಲ್ಡ್",
        "zone_name": "Mahadevapura",
        "corporation": "East",
        "corporation_id": 3,
        "ward_id_within_corp": 38,
        "assembly_constituency": "Mahadevapura",
        "parliamentary_constituency": "Bangalore Central",
        "center_lat": 12.9667936738025,
        "center_lng": 77.7465204386203
    },
    {
        "ward_number_369": 174,
        "slug": "hagaduru",
        "ward_name": "Hagaduru",
        "ward_name_kn": "ಹಗದೂರು",
        "zone_name": "Mahadevapura",
        "corporation": "East",
        "corporation_id": 3,
        "ward_id_within_corp": 39,
        "assembly_constituency": "Mahadevapura",
        "parliamentary_constituency": "Bangalore Central",
        "center_lat": 12.9646404570567,
        "center_lng": 77.762376827356
    },
    {
        "ward_number_369": 175,
        "slug": "varthur",
        "ward_name": "Varthur",
        "ward_name_kn": "ವರ್ತೂರು",
        "zone_name": "Mahadevapura",
        "corporation": "East",
        "corporation_id": 3,
        "ward_id_within_corp": 40,
        "assembly_constituency": "Mahadevapura",
        "parliamentary_constituency": "Bangalore Central",
        "center_lat": 12.9402034581166,
        "center_lng": 77.7435111674533
    },
    {
        "ward_number_369": 176,
        "slug": "munnenkolalu",
        "ward_name": "Munnenkolalu",
        "ward_name_kn": "ಮುನ್ನೇನಕೊಳಲು",
        "zone_name": "Mahadevapura",
        "corporation": "East",
        "corporation_id": 3,
        "ward_id_within_corp": 41,
        "assembly_constituency": "Mahadevapura",
        "parliamentary_constituency": "Bangalore Central",
        "center_lat": 12.9483568175238,
        "center_lng": 77.7082660005054
    },
    {
        "ward_number_369": 177,
        "slug": "priyadarshini-ward",
        "ward_name": "Priyadarshini Ward",
        "ward_name_kn": "ಪ್ರಿಯದರ್ಶಿನಿ ವಾರ್ಡ್",
        "zone_name": "Mahadevapura",
        "corporation": "East",
        "corporation_id": 3,
        "ward_id_within_corp": 42,
        "assembly_constituency": "Mahadevapura",
        "parliamentary_constituency": "Bangalore Central",
        "center_lat": 12.9628919530286,
        "center_lng": 77.7095105368313
    },
    {
        "ward_number_369": 178,
        "slug": "dodda-nekkundi",
        "ward_name": "Dodda Nekkundi",
        "ward_name_kn": "ದೊಡ್ಡ ನೆಕ್ಕುಂಡಿ",
        "zone_name": "Mahadevapura",
        "corporation": "East",
        "corporation_id": 3,
        "ward_id_within_corp": 43,
        "assembly_constituency": "Mahadevapura",
        "parliamentary_constituency": "Bangalore Central",
        "center_lat": 12.9738075759702,
        "center_lng": 77.6964602287476
    },
    {
        "ward_number_369": 179,
        "slug": "ashwath-nagar",
        "ward_name": "Ashwath Nagar",
        "ward_name_kn": "ಅಶ್ವಥ್ ನಗರ",
        "zone_name": "Mahadevapura",
        "corporation": "East",
        "corporation_id": 3,
        "ward_id_within_corp": 44,
        "assembly_constituency": "Mahadevapura",
        "parliamentary_constituency": "Bangalore Central",
        "center_lat": 12.9621573991371,
        "center_lng": 77.6957783570251
    },
    {
        "ward_number_369": 180,
        "slug": "marathahalli",
        "ward_name": "Marathahalli",
        "ward_name_kn": "ಮಾರತಹಳ್ಳಿ",
        "zone_name": "Mahadevapura",
        "corporation": "East",
        "corporation_id": 3,
        "ward_id_within_corp": 45,
        "assembly_constituency": "Mahadevapura",
        "parliamentary_constituency": "Bangalore Central",
        "center_lat": 12.9518960712591,
        "center_lng": 77.6973271592867
    },
    {
        "ward_number_369": 181,
        "slug": "yamalur",
        "ward_name": "Yamalur",
        "ward_name_kn": "ಯಮಲೂರು",
        "zone_name": "Mahadevapura",
        "corporation": "East",
        "corporation_id": 3,
        "ward_id_within_corp": 46,
        "assembly_constituency": "Mahadevapura",
        "parliamentary_constituency": "Bangalore Central",
        "center_lat": 12.944256216361,
        "center_lng": 77.6694686149511
    },
    {
        "ward_number_369": 182,
        "slug": "bellanduru",
        "ward_name": "Bellanduru",
        "ward_name_kn": "ಬೆಳ್ಳಂದೂರು",
        "zone_name": "Mahadevapura",
        "corporation": "East",
        "corporation_id": 3,
        "ward_id_within_corp": 47,
        "assembly_constituency": "Mahadevapura",
        "parliamentary_constituency": "Bangalore Central",
        "center_lat": 12.9322388348959,
        "center_lng": 77.6795994346259
    },
    {
        "ward_number_369": 183,
        "slug": "panathur",
        "ward_name": "Panathur",
        "ward_name_kn": "ಪಣತ್ತೂರು",
        "zone_name": "Mahadevapura",
        "corporation": "East",
        "corporation_id": 3,
        "ward_id_within_corp": 48,
        "assembly_constituency": "Mahadevapura",
        "parliamentary_constituency": "Bangalore Central",
        "center_lat": 12.931515622345,
        "center_lng": 77.7079975833153
    },
    {
        "ward_number_369": 184,
        "slug": "doddakannelli-ward",
        "ward_name": "Doddakannelli Ward",
        "ward_name_kn": "ದೊಡ್ಡಕನ್ನೆಲ್ಲಿ ವಾರ್ಡ್",
        "zone_name": "Mahadevapura",
        "corporation": "East",
        "corporation_id": 3,
        "ward_id_within_corp": 49,
        "assembly_constituency": "Mahadevapura",
        "parliamentary_constituency": "Bangalore Central",
        "center_lat": 12.9208409948969,
        "center_lng": 77.6850211710151
    },
    {
        "ward_number_369": 185,
        "slug": "gunjur",
        "ward_name": "Gunjur",
        "ward_name_kn": "ಗುಂಜೂರು",
        "zone_name": "Mahadevapura",
        "corporation": "East",
        "corporation_id": 3,
        "ward_id_within_corp": 50,
        "assembly_constituency": "Mahadevapura",
        "parliamentary_constituency": "Bangalore Central",
        "center_lat": 12.9209465520643,
        "center_lng": 77.7229015118855
    },
    {
        "ward_number_369": 186,
        "slug": "padmanabhanagara",
        "ward_name": "Padmanabhanagara",
        "ward_name_kn": "ಪದ್ಮನಾಭನಗರ",
        "zone_name": "Jayanagar",
        "corporation": "South",
        "corporation_id": 4,
        "ward_id_within_corp": 1,
        "assembly_constituency": "Padmanabhanagar",
        "parliamentary_constituency": "Bangalore South",
        "center_lat": 12.9154099664164,
        "center_lng": 77.5569295630959
    },
    {
        "ward_number_369": 187,
        "slug": "kadirenahalli",
        "ward_name": "Kadirenahalli",
        "ward_name_kn": "ಕದಿರೇನಹಳ್ಳಿ",
        "zone_name": "Jayanagar",
        "corporation": "South",
        "corporation_id": 4,
        "ward_id_within_corp": 2,
        "assembly_constituency": "Padmanabhanagar",
        "parliamentary_constituency": "Bangalore South",
        "center_lat": 12.9170256052966,
        "center_lng": 77.5610631425017
    },
    {
        "ward_number_369": 188,
        "slug": "yarab-nagar",
        "ward_name": "Yarab nagar",
        "ward_name_kn": "ಯಾರಬ್ ನಗರ",
        "zone_name": "Jayanagar",
        "corporation": "South",
        "corporation_id": 4,
        "ward_id_within_corp": 3,
        "assembly_constituency": "Padmanabhanagar",
        "parliamentary_constituency": "Bangalore South",
        "center_lat": 12.9153649466115,
        "center_lng": 77.5676285499184
    },
    {
        "ward_number_369": 189,
        "slug": "banashankari-temple-ward",
        "ward_name": "Banashankari Temple Ward",
        "ward_name_kn": "ಬನಶಂಕರಿ ದೇವಸ್ಥಾನ ವಾರ್ಡ್",
        "zone_name": "Jayanagar",
        "corporation": "South",
        "corporation_id": 4,
        "ward_id_within_corp": 4,
        "assembly_constituency": "Padmanabhanagar",
        "parliamentary_constituency": "Bangalore South",
        "center_lat": 12.9120287505444,
        "center_lng": 77.5713348272059
    },
    {
        "ward_number_369": 190,
        "slug": "kane-muneshwara-ward",
        "ward_name": "Kane Muneshwara Ward",
        "ward_name_kn": "ಕಾನೆ ಮುನೇಶ್ವರ ವಾರ್ಡ್",
        "zone_name": "Jayanagar",
        "corporation": "South",
        "corporation_id": 4,
        "ward_id_within_corp": 5,
        "assembly_constituency": "Padmanabhanagar",
        "parliamentary_constituency": "Bangalore South",
        "center_lat": 12.9039156852027,
        "center_lng": 77.5621031629596
    },
    {
        "ward_number_369": 191,
        "slug": "gowdanapalya",
        "ward_name": "Gowdanapalya",
        "ward_name_kn": "ಗೌಡನಪಾಳ್ಯ",
        "zone_name": "Jayanagar",
        "corporation": "South",
        "corporation_id": 4,
        "ward_id_within_corp": 6,
        "assembly_constituency": "Padmanabhanagar",
        "parliamentary_constituency": "Bangalore South",
        "center_lat": 12.9087986636437,
        "center_lng": 77.5573458044235
    },
    {
        "ward_number_369": 192,
        "slug": "byrasandra",
        "ward_name": "Byrasandra",
        "ward_name_kn": "ಬೈರಸಂದ್ರ",
        "zone_name": "Jayanagar",
        "corporation": "South",
        "corporation_id": 4,
        "ward_id_within_corp": 7,
        "assembly_constituency": "Jayanagar",
        "parliamentary_constituency": "Bangalore South",
        "center_lat": 12.9283788043829,
        "center_lng": 77.5863996525295
    },
    {
        "ward_number_369": 193,
        "slug": "tilak-nagara",
        "ward_name": "Tilak Nagara",
        "ward_name_kn": "ತಿಲಕ ನಗರ",
        "zone_name": "Jayanagar",
        "corporation": "South",
        "corporation_id": 4,
        "ward_id_within_corp": 8,
        "assembly_constituency": "Jayanagar",
        "parliamentary_constituency": "Bangalore South",
        "center_lat": 12.9279525914004,
        "center_lng": 77.5923607855859
    },
    {
        "ward_number_369": 194,
        "slug": "n-a-l-layout",
        "ward_name": "N.A.L Layout",
        "ward_name_kn": "ಎನ್‌.ಎ.ಎಲ್ ಲೇಔಟ್",
        "zone_name": "Jayanagar",
        "corporation": "South",
        "corporation_id": 4,
        "ward_id_within_corp": 9,
        "assembly_constituency": "Jayanagar",
        "parliamentary_constituency": "Bangalore South",
        "center_lat": 12.9247028018256,
        "center_lng": 77.6007014812434
    },
    {
        "ward_number_369": 195,
        "slug": "abdul-kalam-nagar",
        "ward_name": "Abdul Kalam Nagar",
        "ward_name_kn": "ಅಬ್ದುಲ್ ಕಲಾಂ ನಗರ",
        "zone_name": "Jayanagar",
        "corporation": "South",
        "corporation_id": 4,
        "ward_id_within_corp": 10,
        "assembly_constituency": "Jayanagar",
        "parliamentary_constituency": "Bangalore South",
        "center_lat": 12.9225783897883,
        "center_lng": 77.6014294411088
    },
    {
        "ward_number_369": 196,
        "slug": "jayanagar-east",
        "ward_name": "Jayanagar East",
        "ward_name_kn": "ಜಯನಗರ ಪೂರ್ವ",
        "zone_name": "Jayanagar",
        "corporation": "South",
        "corporation_id": 4,
        "ward_id_within_corp": 11,
        "assembly_constituency": "Jayanagar",
        "parliamentary_constituency": "Bangalore South",
        "center_lat": 12.920605849877,
        "center_lng": 77.6011258559333
    },
    {
        "ward_number_369": 197,
        "slug": "pattabhirama-nagara",
        "ward_name": "Pattabhirama Nagara",
        "ward_name_kn": "ಪಟ್ಟಾಭಿರಾಮ ನಗರ",
        "zone_name": "Jayanagar",
        "corporation": "South",
        "corporation_id": 4,
        "ward_id_within_corp": 12,
        "assembly_constituency": "Jayanagar",
        "parliamentary_constituency": "Bangalore South",
        "center_lat": 12.9183188271957,
        "center_lng": 77.5879040062983
    },
    {
        "ward_number_369": 198,
        "slug": "marenahalli-south",
        "ward_name": "Marenahalli South",
        "ward_name_kn": "ಮಾರೇನಹಳ್ಳಿ ದಕ್ಷಿಣ",
        "zone_name": "Jayanagar",
        "corporation": "South",
        "corporation_id": 4,
        "ward_id_within_corp": 13,
        "assembly_constituency": "Jayanagar",
        "parliamentary_constituency": "Bangalore South",
        "center_lat": 12.9146626449593,
        "center_lng": 77.5902493598114
    },
    {
        "ward_number_369": 199,
        "slug": "j-p-nagar",
        "ward_name": "J.P Nagar",
        "ward_name_kn": "ಜೆ.ಪಿ. ನಗರ",
        "zone_name": "Jayanagar",
        "corporation": "South",
        "corporation_id": 4,
        "ward_id_within_corp": 14,
        "assembly_constituency": "Jayanagar",
        "parliamentary_constituency": "Bangalore South",
        "center_lat": 12.9123138793789,
        "center_lng": 77.5999108920835
    },
    {
        "ward_number_369": 200,
        "slug": "shakambarinagara",
        "ward_name": "Shakambarinagara",
        "ward_name_kn": "ಶಾಕಂಭರಿನಗರ",
        "zone_name": "Jayanagar",
        "corporation": "South",
        "corporation_id": 4,
        "ward_id_within_corp": 15,
        "assembly_constituency": "Jayanagar",
        "parliamentary_constituency": "Bangalore South",
        "center_lat": 12.9099415250875,
        "center_lng": 77.5827821905266
    },
    {
        "ward_number_369": 201,
        "slug": "sarakki",
        "ward_name": "Sarakki",
        "ward_name_kn": "ಸಾರಕ್ಕಿ",
        "zone_name": "Jayanagar",
        "corporation": "South",
        "corporation_id": 4,
        "ward_id_within_corp": 16,
        "assembly_constituency": "Jayanagar",
        "parliamentary_constituency": "Bangalore South",
        "center_lat": 12.9091635852467,
        "center_lng": 77.5773504754012
    },
    {
        "ward_number_369": 202,
        "slug": "n-s-palya",
        "ward_name": "N.S Palya",
        "ward_name_kn": "ಎನ್.ಎಸ್. ಪಾಳ್ಯ",
        "zone_name": "Bommanahalli",
        "corporation": "South",
        "corporation_id": 4,
        "ward_id_within_corp": 17,
        "assembly_constituency": "BTM Layout",
        "parliamentary_constituency": "Bangalore South",
        "center_lat": 12.9089334428078,
        "center_lng": 77.6078709061164
    },
    {
        "ward_number_369": 203,
        "slug": "viswamanava-kuvempu-ward",
        "ward_name": "Viswamanava Kuvempu Ward",
        "ward_name_kn": "ವಿಶ್ವಮಾನವ ಕುವೆಂಪು ವಾರ್ಡ್",
        "zone_name": "Bommanahalli",
        "corporation": "South",
        "corporation_id": 4,
        "ward_id_within_corp": 18,
        "assembly_constituency": "BTM Layout",
        "parliamentary_constituency": "Bangalore South",
        "center_lat": 12.9128910021849,
        "center_lng": 77.610956767078
    },
    {
        "ward_number_369": 204,
        "slug": "tavarekere",
        "ward_name": "Tavarekere",
        "ward_name_kn": "ತಾವರೆಕೆರೆ",
        "zone_name": "Bommanahalli",
        "corporation": "South",
        "corporation_id": 4,
        "ward_id_within_corp": 19,
        "assembly_constituency": "BTM Layout",
        "parliamentary_constituency": "Bangalore South",
        "center_lat": 12.9206064225227,
        "center_lng": 77.6110859808603
    },
    {
        "ward_number_369": 205,
        "slug": "madiwala",
        "ward_name": "Madiwala",
        "ward_name_kn": "ಮಡಿವಾಳ",
        "zone_name": "Bommanahalli",
        "corporation": "South",
        "corporation_id": 4,
        "ward_id_within_corp": 20,
        "assembly_constituency": "BTM Layout",
        "parliamentary_constituency": "Bangalore South",
        "center_lat": 12.9205929498979,
        "center_lng": 77.6173889722871
    },
    {
        "ward_number_369": 206,
        "slug": "chikka-adugodi",
        "ward_name": "Chikka Adugodi",
        "ward_name_kn": "ಚಿಕ್ಕ ಆಡುಗೋಡಿ",
        "zone_name": "Bommanahalli",
        "corporation": "South",
        "corporation_id": 4,
        "ward_id_within_corp": 21,
        "assembly_constituency": "BTM Layout",
        "parliamentary_constituency": "Bangalore South",
        "center_lat": 12.9278462290232,
        "center_lng": 77.6127319795905
    },
    {
        "ward_number_369": 207,
        "slug": "s-g-palya",
        "ward_name": "S.G Palya",
        "ward_name_kn": "ಎಸ್.ಜಿ. ಪಾಳ್ಯ",
        "zone_name": "Bommanahalli",
        "corporation": "South",
        "corporation_id": 4,
        "ward_id_within_corp": 22,
        "assembly_constituency": "BTM Layout",
        "parliamentary_constituency": "Bangalore South",
        "center_lat": 12.9329155906731,
        "center_lng": 77.6055467244263
    },
    {
        "ward_number_369": 208,
        "slug": "lakkasandra",
        "ward_name": "Lakkasandra",
        "ward_name_kn": "ಲಕ್ಕಸಂದ್ರ",
        "zone_name": "Bommanahalli",
        "corporation": "South",
        "corporation_id": 4,
        "ward_id_within_corp": 23,
        "assembly_constituency": "BTM Layout",
        "parliamentary_constituency": "Bangalore South",
        "center_lat": 12.9392271986302,
        "center_lng": 77.6049305717819
    },
    {
        "ward_number_369": 209,
        "slug": "a-adugodi",
        "ward_name": "A Adugodi",
        "ward_name_kn": "ಎ. ಆಡುಗೋಡಿ",
        "zone_name": "Bommanahalli",
        "corporation": "South",
        "corporation_id": 4,
        "ward_id_within_corp": 24,
        "assembly_constituency": "BTM Layout",
        "parliamentary_constituency": "Bangalore South",
        "center_lat": 12.9421710837288,
        "center_lng": 77.6138994345072
    },
    {
        "ward_number_369": 210,
        "slug": "national-games-village",
        "ward_name": "National Games Village",
        "ward_name_kn": "ನ್ಯಾಷನಲ್ ಗೇಮ್ಸ್ ವಿಲೇಜ್",
        "zone_name": "Bommanahalli",
        "corporation": "South",
        "corporation_id": 4,
        "ward_id_within_corp": 25,
        "assembly_constituency": "BTM Layout",
        "parliamentary_constituency": "Bangalore South",
        "center_lat": 12.944793118943,
        "center_lng": 77.6216090881056
    },
    {
        "ward_number_369": 211,
        "slug": "ejipura",
        "ward_name": "Ejipura",
        "ward_name_kn": "ಈಜಿಪುರ",
        "zone_name": "Bommanahalli",
        "corporation": "South",
        "corporation_id": 4,
        "ward_id_within_corp": 26,
        "assembly_constituency": "BTM Layout",
        "parliamentary_constituency": "Bangalore South",
        "center_lat": 12.946373088897,
        "center_lng": 77.62553418355
    },